[
    {
        "name": "Tirana",
        "type": "city",
        "blurb": "In Tiranë, Albania",
        "lat": 41.3289,
        "lng": 19.8178,
        "pop": 418495.0,
        "country_id": "ALB",
        "id": "1008162156",
        "ml_target": "Eastern Europe"
    },
    {
        "name": "Vlore",
        "type": "city",
        "blurb": "In Vlorë, Albania",
        "lat": 40.4667,
        "lng": 19.4833,
        "pop": 130827.0,
        "country_id": "ALB",
        "id": "1008276050",
        "ml_target": "Eastern Europe"
    },
    {
        "name": "Kamez",
        "type": "city",
        "blurb": "In Tiranë, Albania",
        "lat": 41.3833,
        "lng": 19.7667,
        "pop": 126777.0,
        "country_id": "ALB",
        "id": "1008148968",
        "ml_target": "Eastern Europe"
    },
    {
        "name": "Fier",
        "type": "city",
        "blurb": "In Fier, Albania",
        "lat": 40.725,
        "lng": 19.5572,
        "pop": 120655.0,
        "country_id": "ALB",
        "id": "1008293317",
        "ml_target": "Eastern Europe"
    },
    {
        "name": "Durres",
        "type": "city",
        "blurb": "In Durrës, Albania",
        "lat": 41.3111,
        "lng": 19.4392,
        "pop": 113249.0,
        "country_id": "ALB",
        "id": "1008173690",
        "ml_target": "Eastern Europe"
    },
    {
        "name": "Shkoder",
        "type": "city",
        "blurb": "In Shkodër, Albania",
        "lat": 42.0681,
        "lng": 19.5119,
        "pop": 112276.0,
        "country_id": "ALB",
        "id": "1008977725",
        "ml_target": "Eastern Europe"
    },
    {
        "name": "Elbasan",
        "type": "city",
        "blurb": "In Elbasan, Albania",
        "lat": 41.1111,
        "lng": 20.0806,
        "pop": 78703.0,
        "country_id": "ALB",
        "id": "1008409270",
        "ml_target": "Eastern Europe"
    },
    {
        "name": "Korce",
        "type": "city",
        "blurb": "In Korçë, Albania",
        "lat": 40.6167,
        "lng": 20.7667,
        "pop": 51152.0,
        "country_id": "ALB",
        "id": "1008361921",
        "ml_target": "Eastern Europe"
    },
    {
        "name": "Berat",
        "type": "city",
        "blurb": "In Berat, Albania",
        "lat": 40.7,
        "lng": 19.95,
        "pop": 36496.0,
        "country_id": "ALB",
        "id": "1008955153",
        "ml_target": "Eastern Europe"
    },
    {
        "name": "Gjirokaster",
        "type": "city",
        "blurb": "In Gjirokastër, Albania",
        "lat": 40.0667,
        "lng": 20.1333,
        "pop": 23437.0,
        "country_id": "ALB",
        "id": "1008368062",
        "ml_target": "Eastern Europe"
    },
    {
        "name": "Lezhe",
        "type": "city",
        "blurb": "In Lezhë, Albania",
        "lat": 41.7819,
        "lng": 19.6444,
        "pop": 15510.0,
        "country_id": "ALB",
        "id": "1008889153",
        "ml_target": "Eastern Europe"
    },
    {
        "name": "Kukes",
        "type": "city",
        "blurb": "In Kukës, Albania",
        "lat": 42.0833,
        "lng": 20.4167,
        "pop": 16719.0,
        "country_id": "ALB",
        "id": "1008649172",
        "ml_target": "Eastern Europe"
    },
    {
        "name": "Peshkopi",
        "type": "city",
        "blurb": "In Dibër, Albania",
        "lat": 41.6833,
        "lng": 20.4281,
        "pop": 13251.0,
        "country_id": "ALB",
        "id": "1008412550",
        "ml_target": "Eastern Europe"
    },
    {
        "name": "Sarande",
        "type": "city",
        "blurb": "In Vlorë, Albania",
        "lat": 39.875,
        "lng": 20.01,
        "pop": 41000.0,
        "country_id": "ALB",
        "id": "1008879697",
        "ml_target": "Eastern Europe"
    },
    {
        "name": "Lushnje",
        "type": "city",
        "blurb": "In Fier, Albania",
        "lat": 40.9333,
        "lng": 19.7,
        "pop": 31105.0,
        "country_id": "ALB",
        "id": "1008790888",
        "ml_target": "Eastern Europe"
    },
    {
        "name": "Kavaje",
        "type": "city",
        "blurb": "In Tiranë, Albania",
        "lat": 41.1842,
        "lng": 19.5619,
        "pop": 29354.0,
        "country_id": "ALB",
        "id": "1008475617",
        "ml_target": "Eastern Europe"
    },
    {
        "name": "Pogradec",
        "type": "city",
        "blurb": "In Korçë, Albania",
        "lat": 40.9,
        "lng": 20.65,
        "pop": 20848.0,
        "country_id": "ALB",
        "id": "1008366566",
        "ml_target": "Eastern Europe"
    },
    {
        "name": "Fushe-Kruje",
        "type": "city",
        "blurb": "In Durrës, Albania",
        "lat": 41.4833,
        "lng": 19.7167,
        "pop": 18477.0,
        "country_id": "ALB",
        "id": "1008652935",
        "ml_target": "Eastern Europe"
    },
    {
        "name": "Lac",
        "type": "city",
        "blurb": "In Lezhë, Albania",
        "lat": 41.6353,
        "lng": 19.7131,
        "pop": 17086.0,
        "country_id": "ALB",
        "id": "1008762785",
        "ml_target": "Eastern Europe"
    },
    {
        "name": "Sukth",
        "type": "city",
        "blurb": "In Durrës, Albania",
        "lat": 41.3833,
        "lng": 19.5333,
        "pop": 15966.0,
        "country_id": "ALB",
        "id": "1008647190",
        "ml_target": "Eastern Europe"
    },
    {
        "name": "Bucimas",
        "type": "city",
        "blurb": "In Korçë, Albania",
        "lat": 40.8917,
        "lng": 20.6806,
        "pop": 15687.0,
        "country_id": "ALB",
        "id": "1008557449",
        "ml_target": "Eastern Europe"
    },
    {
        "name": "Patos",
        "type": "city",
        "blurb": "In Fier, Albania",
        "lat": 40.6833,
        "lng": 19.6167,
        "pop": 15397.0,
        "country_id": "ALB",
        "id": "1008184635",
        "ml_target": "Eastern Europe"
    },
    {
        "name": "Kucove",
        "type": "city",
        "blurb": "In Berat, Albania",
        "lat": 40.8039,
        "lng": 19.9144,
        "pop": 12654.0,
        "country_id": "ALB",
        "id": "1008520632",
        "ml_target": "Eastern Europe"
    },
    {
        "name": "Librazhd-Qender",
        "type": "city",
        "blurb": "In Elbasan, Albania",
        "lat": 41.1969,
        "lng": 20.3356,
        "pop": 12691.0,
        "country_id": "ALB",
        "id": "1008639331",
        "ml_target": "Eastern Europe"
    },
    {
        "name": "Kruje",
        "type": "city",
        "blurb": "In Durrës, Albania",
        "lat": 41.5,
        "lng": 19.8,
        "pop": 11721.0,
        "country_id": "ALB",
        "id": "1008696208",
        "ml_target": "Eastern Europe"
    },
    {
        "name": "Burrel",
        "type": "city",
        "blurb": "In Dibër, Albania",
        "lat": 41.6083,
        "lng": 20.0111,
        "pop": 10862.0,
        "country_id": "ALB",
        "id": "1008883153",
        "ml_target": "Eastern Europe"
    },
    {
        "name": "Gramsh",
        "type": "city",
        "blurb": "In Elbasan, Albania",
        "lat": 40.8667,
        "lng": 20.1833,
        "pop": 8440.0,
        "country_id": "ALB",
        "id": "1008632813",
        "ml_target": "Eastern Europe"
    },
    {
        "name": "Perondi",
        "type": "city",
        "blurb": "In Berat, Albania",
        "lat": 40.7833,
        "lng": 19.9333,
        "pop": 9005.0,
        "country_id": "ALB",
        "id": "1008411335",
        "ml_target": "Eastern Europe"
    },
    {
        "name": "Libonik",
        "type": "city",
        "blurb": "In Korçë, Albania",
        "lat": 40.75,
        "lng": 20.7167,
        "pop": 8922.0,
        "country_id": "ALB",
        "id": "1008483668",
        "ml_target": "Eastern Europe"
    },
    {
        "name": "Belsh",
        "type": "city",
        "blurb": "In Elbasan, Albania",
        "lat": 40.9833,
        "lng": 19.8833,
        "pop": 8781.0,
        "country_id": "ALB",
        "id": "1008080226",
        "ml_target": "Eastern Europe"
    },
    {
        "name": "Rreshen",
        "type": "city",
        "blurb": "In Lezhë, Albania",
        "lat": 41.7667,
        "lng": 19.8833,
        "pop": 8803.0,
        "country_id": "ALB",
        "id": "1008845269",
        "ml_target": "Eastern Europe"
    },
    {
        "name": "Librazhd",
        "type": "city",
        "blurb": "In Elbasan, Albania",
        "lat": 41.1833,
        "lng": 20.3167,
        "pop": 6937.0,
        "country_id": "ALB",
        "id": "1008800835",
        "ml_target": "Eastern Europe"
    },
    {
        "name": "Permet",
        "type": "city",
        "blurb": "In Gjirokastër, Albania",
        "lat": 40.2333,
        "lng": 20.35,
        "pop": 5945.0,
        "country_id": "ALB",
        "id": "1008604833",
        "ml_target": "Eastern Europe"
    },
    {
        "name": "Bajram Curri",
        "type": "city",
        "blurb": "In Kukës, Albania",
        "lat": 42.3581,
        "lng": 20.0758,
        "pop": 5340.0,
        "country_id": "ALB",
        "id": "1008251523",
        "ml_target": "Eastern Europe"
    },
    {
        "name": "Tepelene",
        "type": "city",
        "blurb": "In Gjirokastër, Albania",
        "lat": 40.2967,
        "lng": 20.0189,
        "pop": 4342.0,
        "country_id": "ALB",
        "id": "1008683571",
        "ml_target": "Eastern Europe"
    },
    {
        "name": "Erseke",
        "type": "city",
        "blurb": "In Korçë, Albania",
        "lat": 40.3333,
        "lng": 20.6833,
        "pop": 3746.0,
        "country_id": "ALB",
        "id": "1008049831",
        "ml_target": "Eastern Europe"
    },
    {
        "name": "Corovode",
        "type": "city",
        "blurb": "In Berat, Albania",
        "lat": 40.5,
        "lng": 20.2167,
        "pop": 4051.0,
        "country_id": "ALB",
        "id": "1008566247",
        "ml_target": "Eastern Europe"
    },
    {
        "name": "Puke",
        "type": "city",
        "blurb": "In Shkodër, Albania",
        "lat": 42.05,
        "lng": 19.9,
        "pop": 3607.0,
        "country_id": "ALB",
        "id": "1008739218",
        "ml_target": "Eastern Europe"
    },
    {
        "name": "Andorra la Vella",
        "type": "city",
        "blurb": "In Andorra la Vella, Andorra",
        "lat": 42.5,
        "lng": 1.5,
        "pop": 22615.0,
        "country_id": "AND",
        "id": "1020828846",
        "ml_target": "Spain"
    },
    {
        "name": "Escaldes-Engordany",
        "type": "city",
        "blurb": "In Escaldes-Engordany, Andorra",
        "lat": 42.5089,
        "lng": 1.5408,
        "pop": 14521.0,
        "country_id": "AND",
        "id": "1020008674",
        "ml_target": "Spain"
    },
    {
        "name": "Encamp",
        "type": "city",
        "blurb": "In Encamp, Andorra",
        "lat": 42.5361,
        "lng": 1.5828,
        "pop": 12338.0,
        "country_id": "AND",
        "id": "1020417470",
        "ml_target": "Spain"
    },
    {
        "name": "La Massana",
        "type": "city",
        "blurb": "In La Massana, Andorra",
        "lat": 42.5444,
        "lng": 1.5144,
        "pop": 10076.0,
        "country_id": "AND",
        "id": "1020543453",
        "ml_target": "Spain"
    },
    {
        "name": "Sant Julia de Loria",
        "type": "city",
        "blurb": "In Sant Julià de Lòria, Andorra",
        "lat": 42.465,
        "lng": 1.4911,
        "pop": 9156.0,
        "country_id": "AND",
        "id": "1020885733",
        "ml_target": "Spain"
    },
    {
        "name": "Ordino",
        "type": "city",
        "blurb": "In Ordino, Andorra",
        "lat": 42.555,
        "lng": 1.5331,
        "pop": 4858.0,
        "country_id": "AND",
        "id": "1020655238",
        "ml_target": "Spain"
    },
    {
        "name": "Canillo",
        "type": "city",
        "blurb": "In Canillo, Andorra",
        "lat": 42.5667,
        "lng": 1.6,
        "pop": 4103.0,
        "country_id": "AND",
        "id": "1020594179",
        "ml_target": "Spain"
    },
    {
        "name": "Vienna",
        "type": "city",
        "blurb": "In Wien, Austria",
        "lat": 48.2083,
        "lng": 16.3725,
        "pop": 1973403.0,
        "country_id": "AUT",
        "id": "1040261752",
        "ml_target": "Eastern Europe"
    },
    {
        "name": "Graz",
        "type": "city",
        "blurb": "In Steiermark, Austria",
        "lat": 47.0708,
        "lng": 15.4386,
        "pop": 289440.0,
        "country_id": "AUT",
        "id": "1040184559",
        "ml_target": "Eastern Europe"
    },
    {
        "name": "Linz",
        "type": "city",
        "blurb": "In Oberösterreich, Austria",
        "lat": 48.3058,
        "lng": 14.2864,
        "pop": 210165.0,
        "country_id": "AUT",
        "id": "1040261171",
        "ml_target": "Eastern Europe"
    },
    {
        "name": "Salzburg",
        "type": "city",
        "blurb": "In Salzburg, Austria",
        "lat": 47.8,
        "lng": 13.045,
        "pop": 155021.0,
        "country_id": "AUT",
        "id": "1040312147",
        "ml_target": "Eastern Europe"
    },
    {
        "name": "Innsbruck",
        "type": "city",
        "blurb": "In Tirol, Austria",
        "lat": 47.2683,
        "lng": 11.3933,
        "pop": 132493.0,
        "country_id": "AUT",
        "id": "1040038924",
        "ml_target": "Eastern Europe"
    },
    {
        "name": "Klagenfurt",
        "type": "city",
        "blurb": "In Kärnten, Austria",
        "lat": 46.6167,
        "lng": 14.3,
        "pop": 101403.0,
        "country_id": "AUT",
        "id": "1040149651",
        "ml_target": "Eastern Europe"
    },
    {
        "name": "Sankt Polten",
        "type": "city",
        "blurb": "In Niederösterreich, Austria",
        "lat": 48.2,
        "lng": 15.6167,
        "pop": 55514.0,
        "country_id": "AUT",
        "id": "1040313109",
        "ml_target": "Eastern Europe"
    },
    {
        "name": "Bregenz",
        "type": "city",
        "blurb": "In Vorarlberg, Austria",
        "lat": 47.505,
        "lng": 9.7492,
        "pop": 29806.0,
        "country_id": "AUT",
        "id": "1040174258",
        "ml_target": "Eastern Europe"
    },
    {
        "name": "Modling",
        "type": "city",
        "blurb": "In Niederösterreich, Austria",
        "lat": 48.0856,
        "lng": 16.2831,
        "pop": 20555.0,
        "country_id": "AUT",
        "id": "1040024396",
        "ml_target": "Eastern Europe"
    },
    {
        "name": "Hall in Tirol",
        "type": "city",
        "blurb": "In Tirol, Austria",
        "lat": 47.2833,
        "lng": 11.5,
        "pop": 13897.0,
        "country_id": "AUT",
        "id": "1040200365",
        "ml_target": "Eastern Europe"
    },
    {
        "name": "Eisenstadt",
        "type": "city",
        "blurb": "In Burgenland, Austria",
        "lat": 47.85,
        "lng": 16.5167,
        "pop": 14476.0,
        "country_id": "AUT",
        "id": "1040751740",
        "ml_target": "Eastern Europe"
    },
    {
        "name": "Villach",
        "type": "city",
        "blurb": "In Kärnten, Austria",
        "lat": 46.6167,
        "lng": 13.8333,
        "pop": 65127.0,
        "country_id": "AUT",
        "id": "1040202364",
        "ml_target": "Eastern Europe"
    },
    {
        "name": "Wels",
        "type": "city",
        "blurb": "In Oberösterreich, Austria",
        "lat": 48.15,
        "lng": 14.0167,
        "pop": 61233.0,
        "country_id": "AUT",
        "id": "1040833210",
        "ml_target": "Eastern Europe"
    },
    {
        "name": "Dornbirn",
        "type": "city",
        "blurb": "In Vorarlberg, Austria",
        "lat": 47.4167,
        "lng": 9.75,
        "pop": 48067.0,
        "country_id": "AUT",
        "id": "1040508998",
        "ml_target": "Eastern Europe"
    },
    {
        "name": "Wiener Neustadt",
        "type": "city",
        "blurb": "In Niederösterreich, Austria",
        "lat": 47.8167,
        "lng": 16.25,
        "pop": 44461.0,
        "country_id": "AUT",
        "id": "1040389518",
        "ml_target": "Eastern Europe"
    },
    {
        "name": "Steyr",
        "type": "city",
        "blurb": "In Oberösterreich, Austria",
        "lat": 48.0333,
        "lng": 14.4167,
        "pop": 38331.0,
        "country_id": "AUT",
        "id": "1040132113",
        "ml_target": "Eastern Europe"
    },
    {
        "name": "Leonding",
        "type": "city",
        "blurb": "In Oberösterreich, Austria",
        "lat": 48.2792,
        "lng": 14.2528,
        "pop": 28698.0,
        "country_id": "AUT",
        "id": "1040991026",
        "ml_target": "Eastern Europe"
    },
    {
        "name": "Klosterneuburg",
        "type": "city",
        "blurb": "In Niederösterreich, Austria",
        "lat": 48.3042,
        "lng": 16.3167,
        "pop": 27058.0,
        "country_id": "AUT",
        "id": "1040735965",
        "ml_target": "Eastern Europe"
    },
    {
        "name": "Baden",
        "type": "city",
        "blurb": "In Niederösterreich, Austria",
        "lat": 48.0075,
        "lng": 16.2344,
        "pop": 26286.0,
        "country_id": "AUT",
        "id": "1040765350",
        "ml_target": "Eastern Europe"
    },
    {
        "name": "Traun",
        "type": "city",
        "blurb": "In Oberösterreich, Austria",
        "lat": 48.2217,
        "lng": 14.2397,
        "pop": 24477.0,
        "country_id": "AUT",
        "id": "1040684469",
        "ml_target": "Eastern Europe"
    },
    {
        "name": "Wolfsberg",
        "type": "city",
        "blurb": "In Kärnten, Austria",
        "lat": 46.8419,
        "lng": 14.8408,
        "pop": 25035.0,
        "country_id": "AUT",
        "id": "1040360550",
        "ml_target": "Eastern Europe"
    },
    {
        "name": "Krems an der Donau",
        "type": "city",
        "blurb": "In Niederösterreich, Austria",
        "lat": 48.4167,
        "lng": 15.6167,
        "pop": 24610.0,
        "country_id": "AUT",
        "id": "1040577668",
        "ml_target": "Eastern Europe"
    },
    {
        "name": "Leoben",
        "type": "city",
        "blurb": "In Steiermark, Austria",
        "lat": 47.3817,
        "lng": 15.0972,
        "pop": 24645.0,
        "country_id": "AUT",
        "id": "1040591429",
        "ml_target": "Eastern Europe"
    },
    {
        "name": "Amstetten",
        "type": "city",
        "blurb": "In Niederösterreich, Austria",
        "lat": 48.1167,
        "lng": 14.8667,
        "pop": 23656.0,
        "country_id": "AUT",
        "id": "1040466200",
        "ml_target": "Eastern Europe"
    },
    {
        "name": "Lustenau",
        "type": "city",
        "blurb": "In Vorarlberg, Austria",
        "lat": 47.4271,
        "lng": 9.6711,
        "pop": 22821.0,
        "country_id": "AUT",
        "id": "1040745157",
        "ml_target": "Eastern Europe"
    },
    {
        "name": "Kapfenberg",
        "type": "city",
        "blurb": "In Steiermark, Austria",
        "lat": 47.4394,
        "lng": 15.2894,
        "pop": 22798.0,
        "country_id": "AUT",
        "id": "1040864298",
        "ml_target": "Eastern Europe"
    },
    {
        "name": "Hallein",
        "type": "city",
        "blurb": "In Salzburg, Austria",
        "lat": 47.6667,
        "lng": 13.0833,
        "pop": 21150.0,
        "country_id": "AUT",
        "id": "1040821146",
        "ml_target": "Eastern Europe"
    },
    {
        "name": "Kufstein",
        "type": "city",
        "blurb": "In Tirol, Austria",
        "lat": 47.5833,
        "lng": 12.1667,
        "pop": 19223.0,
        "country_id": "AUT",
        "id": "1040156374",
        "ml_target": "Eastern Europe"
    },
    {
        "name": "Traiskirchen",
        "type": "city",
        "blurb": "In Niederösterreich, Austria",
        "lat": 48.0189,
        "lng": 16.2922,
        "pop": 18858.0,
        "country_id": "AUT",
        "id": "1040581289",
        "ml_target": "Eastern Europe"
    },
    {
        "name": "Schwechat",
        "type": "city",
        "blurb": "In Niederösterreich, Austria",
        "lat": 48.1411,
        "lng": 16.4786,
        "pop": 18026.0,
        "country_id": "AUT",
        "id": "1040189871",
        "ml_target": "Eastern Europe"
    },
    {
        "name": "Stockerau",
        "type": "city",
        "blurb": "In Niederösterreich, Austria",
        "lat": 48.3858,
        "lng": 16.2108,
        "pop": 16916.0,
        "country_id": "AUT",
        "id": "1040718812",
        "ml_target": "Eastern Europe"
    },
    {
        "name": "Braunau am Inn",
        "type": "city",
        "blurb": "In Oberösterreich, Austria",
        "lat": 48.2583,
        "lng": 13.0333,
        "pop": 17095.0,
        "country_id": "AUT",
        "id": "1040852989",
        "ml_target": "Eastern Europe"
    },
    {
        "name": "Hohenems",
        "type": "city",
        "blurb": "In Vorarlberg, Austria",
        "lat": 47.3667,
        "lng": 9.6667,
        "pop": 16317.0,
        "country_id": "AUT",
        "id": "1040845678",
        "ml_target": "Eastern Europe"
    },
    {
        "name": "Saalfelden am Steinernen Meer",
        "type": "city",
        "blurb": "In Salzburg, Austria",
        "lat": 47.4269,
        "lng": 12.8483,
        "pop": 16700.0,
        "country_id": "AUT",
        "id": "1040716716",
        "ml_target": "Eastern Europe"
    },
    {
        "name": "Ansfelden",
        "type": "city",
        "blurb": "In Oberösterreich, Austria",
        "lat": 48.2083,
        "lng": 14.2889,
        "pop": 16194.0,
        "country_id": "AUT",
        "id": "1040496902",
        "ml_target": "Eastern Europe"
    },
    {
        "name": "Telfs",
        "type": "city",
        "blurb": "In Tirol, Austria",
        "lat": 47.3069,
        "lng": 11.0722,
        "pop": 16046.0,
        "country_id": "AUT",
        "id": "1040393855",
        "ml_target": "Eastern Europe"
    },
    {
        "name": "Bruck an der Mur",
        "type": "city",
        "blurb": "In Steiermark, Austria",
        "lat": 47.4106,
        "lng": 15.2686,
        "pop": 15837.0,
        "country_id": "AUT",
        "id": "1040863751",
        "ml_target": "Eastern Europe"
    },
    {
        "name": "Perchtoldsdorf",
        "type": "city",
        "blurb": "In Niederösterreich, Austria",
        "lat": 48.1167,
        "lng": 16.2667,
        "pop": 15047.0,
        "country_id": "AUT",
        "id": "1040055191",
        "ml_target": "Eastern Europe"
    },
    {
        "name": "Spittal an der Drau",
        "type": "city",
        "blurb": "In Kärnten, Austria",
        "lat": 46.7917,
        "lng": 13.4958,
        "pop": 15413.0,
        "country_id": "AUT",
        "id": "1040131621",
        "ml_target": "Eastern Europe"
    },
    {
        "name": "Bludenz",
        "type": "city",
        "blurb": "In Vorarlberg, Austria",
        "lat": 47.1533,
        "lng": 9.8219,
        "pop": 14956.0,
        "country_id": "AUT",
        "id": "1040404083",
        "ml_target": "Eastern Europe"
    },
    {
        "name": "Ternitz",
        "type": "city",
        "blurb": "In Niederösterreich, Austria",
        "lat": 47.7167,
        "lng": 16.0333,
        "pop": 14632.0,
        "country_id": "AUT",
        "id": "1040196639",
        "ml_target": "Eastern Europe"
    },
    {
        "name": "Worgl",
        "type": "city",
        "blurb": "In Tirol, Austria",
        "lat": 47.4831,
        "lng": 12.0664,
        "pop": 13811.0,
        "country_id": "AUT",
        "id": "1040228921",
        "ml_target": "Eastern Europe"
    },
    {
        "name": "Schwaz",
        "type": "city",
        "blurb": "In Tirol, Austria",
        "lat": 47.35,
        "lng": 11.7,
        "pop": 13810.0,
        "country_id": "AUT",
        "id": "1040919527",
        "ml_target": "Eastern Europe"
    },
    {
        "name": "Feldkirchen",
        "type": "city",
        "blurb": "In Kärnten, Austria",
        "lat": 46.7236,
        "lng": 14.0919,
        "pop": 14198.0,
        "country_id": "AUT",
        "id": "1040318480",
        "ml_target": "Eastern Europe"
    },
    {
        "name": "Korneuburg",
        "type": "city",
        "blurb": "In Niederösterreich, Austria",
        "lat": 48.3453,
        "lng": 16.3331,
        "pop": 12986.0,
        "country_id": "AUT",
        "id": "1040595988",
        "ml_target": "Eastern Europe"
    },
    {
        "name": "Hard",
        "type": "city",
        "blurb": "In Vorarlberg, Austria",
        "lat": 47.4892,
        "lng": 9.69,
        "pop": 13495.0,
        "country_id": "AUT",
        "id": "1040681347",
        "ml_target": "Eastern Europe"
    },
    {
        "name": "Bad Ischl",
        "type": "city",
        "blurb": "In Oberösterreich, Austria",
        "lat": 47.7115,
        "lng": 13.6239,
        "pop": 14133.0,
        "country_id": "AUT",
        "id": "1040620508",
        "ml_target": "Eastern Europe"
    },
    {
        "name": "Marchtrenk",
        "type": "city",
        "blurb": "In Oberösterreich, Austria",
        "lat": 48.1917,
        "lng": 14.1106,
        "pop": 13603.0,
        "country_id": "AUT",
        "id": "1040791234",
        "ml_target": "Eastern Europe"
    },
    {
        "name": "Feldbach",
        "type": "city",
        "blurb": "In Steiermark, Austria",
        "lat": 46.955,
        "lng": 15.8883,
        "pop": 13369.0,
        "country_id": "AUT",
        "id": "1040342228",
        "ml_target": "Eastern Europe"
    },
    {
        "name": "Knittelfeld",
        "type": "city",
        "blurb": "In Steiermark, Austria",
        "lat": 47.215,
        "lng": 14.8294,
        "pop": 12626.0,
        "country_id": "AUT",
        "id": "1040186382",
        "ml_target": "Eastern Europe"
    },
    {
        "name": "Neunkirchen",
        "type": "city",
        "blurb": "In Niederösterreich, Austria",
        "lat": 47.7269,
        "lng": 16.0817,
        "pop": 12879.0,
        "country_id": "AUT",
        "id": "1040203057",
        "ml_target": "Eastern Europe"
    },
    {
        "name": "Brunn am Gebirge",
        "type": "city",
        "blurb": "In Niederösterreich, Austria",
        "lat": 48.1069,
        "lng": 16.2842,
        "pop": 11864.0,
        "country_id": "AUT",
        "id": "1040836072",
        "ml_target": "Eastern Europe"
    },
    {
        "name": "Gmunden",
        "type": "city",
        "blurb": "In Oberösterreich, Austria",
        "lat": 47.9181,
        "lng": 13.7994,
        "pop": 13191.0,
        "country_id": "AUT",
        "id": "1040670341",
        "ml_target": "Eastern Europe"
    },
    {
        "name": "Vocklabruck",
        "type": "city",
        "blurb": "In Oberösterreich, Austria",
        "lat": 48.0086,
        "lng": 13.6558,
        "pop": 12299.0,
        "country_id": "AUT",
        "id": "1040721177",
        "ml_target": "Eastern Europe"
    },
    {
        "name": "Sankt Veit an der Glan",
        "type": "city",
        "blurb": "In Kärnten, Austria",
        "lat": 46.7667,
        "lng": 14.3603,
        "pop": 12547.0,
        "country_id": "AUT",
        "id": "1040281881",
        "ml_target": "Eastern Europe"
    },
    {
        "name": "Leibnitz",
        "type": "city",
        "blurb": "In Steiermark, Austria",
        "lat": 46.7831,
        "lng": 15.545,
        "pop": 12176.0,
        "country_id": "AUT",
        "id": "1040580132",
        "ml_target": "Eastern Europe"
    },
    {
        "name": "Lienz",
        "type": "city",
        "blurb": "In Tirol, Austria",
        "lat": 46.8297,
        "lng": 12.7697,
        "pop": 11935.0,
        "country_id": "AUT",
        "id": "1040923905",
        "ml_target": "Eastern Europe"
    },
    {
        "name": "Rankweil",
        "type": "city",
        "blurb": "In Vorarlberg, Austria",
        "lat": 47.2667,
        "lng": 9.65,
        "pop": 11855.0,
        "country_id": "AUT",
        "id": "1040449499",
        "ml_target": "Eastern Europe"
    },
    {
        "name": "Enns",
        "type": "city",
        "blurb": "In Oberösterreich, Austria",
        "lat": 48.2167,
        "lng": 14.475,
        "pop": 11937.0,
        "country_id": "AUT",
        "id": "1040630607",
        "ml_target": "Eastern Europe"
    },
    {
        "name": "Weiz",
        "type": "city",
        "blurb": "In Steiermark, Austria",
        "lat": 47.2189,
        "lng": 15.6253,
        "pop": 11627.0,
        "country_id": "AUT",
        "id": "1040504116",
        "ml_target": "Eastern Europe"
    },
    {
        "name": "Gotzis",
        "type": "city",
        "blurb": "In Vorarlberg, Austria",
        "lat": 47.3342,
        "lng": 9.6453,
        "pop": 11473.0,
        "country_id": "AUT",
        "id": "1040768534",
        "ml_target": "Eastern Europe"
    },
    {
        "name": "Bad Voslau",
        "type": "city",
        "blurb": "In Niederösterreich, Austria",
        "lat": 47.9669,
        "lng": 16.2144,
        "pop": 11844.0,
        "country_id": "AUT",
        "id": "1040153986",
        "ml_target": "Eastern Europe"
    },
    {
        "name": "Ried im Innkreis",
        "type": "city",
        "blurb": "In Oberösterreich, Austria",
        "lat": 48.21,
        "lng": 13.4894,
        "pop": 11903.0,
        "country_id": "AUT",
        "id": "1040700214",
        "ml_target": "Eastern Europe"
    },
    {
        "name": "Gross-Enzersdorf",
        "type": "city",
        "blurb": "In Niederösterreich, Austria",
        "lat": 48.2,
        "lng": 16.55,
        "pop": 11817.0,
        "country_id": "AUT",
        "id": "1040341836",
        "ml_target": "Eastern Europe"
    },
    {
        "name": "Ganserndorf",
        "type": "city",
        "blurb": "In Niederösterreich, Austria",
        "lat": 48.3406,
        "lng": 16.7175,
        "pop": 11404.0,
        "country_id": "AUT",
        "id": "1040375279",
        "ml_target": "Eastern Europe"
    },
    {
        "name": "Hollabrunn",
        "type": "city",
        "blurb": "In Niederösterreich, Austria",
        "lat": 48.5667,
        "lng": 16.0833,
        "pop": 11681.0,
        "country_id": "AUT",
        "id": "1040573324",
        "ml_target": "Eastern Europe"
    },
    {
        "name": "Deutschlandsberg",
        "type": "city",
        "blurb": "In Steiermark, Austria",
        "lat": 46.8161,
        "lng": 15.215,
        "pop": 11663.0,
        "country_id": "AUT",
        "id": "1040677286",
        "ml_target": "Eastern Europe"
    },
    {
        "name": "Mistelbach",
        "type": "city",
        "blurb": "In Niederösterreich, Austria",
        "lat": 48.5667,
        "lng": 16.5667,
        "pop": 11559.0,
        "country_id": "AUT",
        "id": "1040942506",
        "ml_target": "Eastern Europe"
    },
    {
        "name": "Gerasdorf bei Wien",
        "type": "city",
        "blurb": "In Niederösterreich, Austria",
        "lat": 48.295,
        "lng": 16.4675,
        "pop": 11155.0,
        "country_id": "AUT",
        "id": "1040814671",
        "ml_target": "Eastern Europe"
    },
    {
        "name": "Waidhofen an der Ybbs",
        "type": "city",
        "blurb": "In Niederösterreich, Austria",
        "lat": 47.9596,
        "lng": 14.7745,
        "pop": 11333.0,
        "country_id": "AUT",
        "id": "1040615361",
        "ml_target": "Eastern Europe"
    },
    {
        "name": "Sankt Johann im Pongau",
        "type": "city",
        "blurb": "In Salzburg, Austria",
        "lat": 47.35,
        "lng": 13.2,
        "pop": 11235.0,
        "country_id": "AUT",
        "id": "1040330095",
        "ml_target": "Eastern Europe"
    },
    {
        "name": "Trofaiach",
        "type": "city",
        "blurb": "In Steiermark, Austria",
        "lat": 47.4261,
        "lng": 15.0067,
        "pop": 11125.0,
        "country_id": "AUT",
        "id": "1040300354",
        "ml_target": "Eastern Europe"
    },
    {
        "name": "Ebreichsdorf",
        "type": "city",
        "blurb": "In Niederösterreich, Austria",
        "lat": 47.9611,
        "lng": 16.4047,
        "pop": 10942.0,
        "country_id": "AUT",
        "id": "1040140481",
        "ml_target": "Eastern Europe"
    },
    {
        "name": "Gleisdorf",
        "type": "city",
        "blurb": "In Steiermark, Austria",
        "lat": 47.1039,
        "lng": 15.7083,
        "pop": 10763.0,
        "country_id": "AUT",
        "id": "1040059456",
        "ml_target": "Eastern Europe"
    },
    {
        "name": "Volkermarkt",
        "type": "city",
        "blurb": "In Kärnten, Austria",
        "lat": 46.6622,
        "lng": 14.6344,
        "pop": 10946.0,
        "country_id": "AUT",
        "id": "1040264683",
        "ml_target": "Eastern Europe"
    },
    {
        "name": "Wiener Neudorf",
        "type": "city",
        "blurb": "In Niederösterreich, Austria",
        "lat": 48.0856,
        "lng": 16.3131,
        "pop": 9433.0,
        "country_id": "AUT",
        "id": "1040799859",
        "ml_target": "Eastern Europe"
    },
    {
        "name": "Zwettl",
        "type": "city",
        "blurb": "In Niederösterreich, Austria",
        "lat": 48.6033,
        "lng": 15.1689,
        "pop": 10908.0,
        "country_id": "AUT",
        "id": "1040676174",
        "ml_target": "Eastern Europe"
    },
    {
        "name": "Lauterach",
        "type": "city",
        "blurb": "In Vorarlberg, Austria",
        "lat": 47.4772,
        "lng": 9.7314,
        "pop": 10028.0,
        "country_id": "AUT",
        "id": "1040609359",
        "ml_target": "Eastern Europe"
    },
    {
        "name": "Strasshof an der Nordbahn",
        "type": "city",
        "blurb": "In Niederösterreich, Austria",
        "lat": 48.3194,
        "lng": 16.6475,
        "pop": 10009.0,
        "country_id": "AUT",
        "id": "1040365922",
        "ml_target": "Eastern Europe"
    },
    {
        "name": "Bischofshofen",
        "type": "city",
        "blurb": "In Salzburg, Austria",
        "lat": 47.4172,
        "lng": 13.2194,
        "pop": 10540.0,
        "country_id": "AUT",
        "id": "1040799035",
        "ml_target": "Eastern Europe"
    },
    {
        "name": "Imst",
        "type": "city",
        "blurb": "In Tirol, Austria",
        "lat": 47.2394,
        "lng": 10.7381,
        "pop": 10504.0,
        "country_id": "AUT",
        "id": "1040504243",
        "ml_target": "Eastern Europe"
    },
    {
        "name": "Maria Enzersdorf",
        "type": "city",
        "blurb": "In Niederösterreich, Austria",
        "lat": 48.1,
        "lng": 16.2833,
        "pop": 8829.0,
        "country_id": "AUT",
        "id": "1040889264",
        "ml_target": "Eastern Europe"
    },
    {
        "name": "Koflach",
        "type": "city",
        "blurb": "In Steiermark, Austria",
        "lat": 47.0639,
        "lng": 15.0889,
        "pop": 9888.0,
        "country_id": "AUT",
        "id": "1040578038",
        "ml_target": "Eastern Europe"
    },
    {
        "name": "Rum",
        "type": "city",
        "blurb": "In Tirol, Austria",
        "lat": 47.2872,
        "lng": 11.4581,
        "pop": 9190.0,
        "country_id": "AUT",
        "id": "1040726454",
        "ml_target": "Eastern Europe"
    },
    {
        "name": "Laakirchen",
        "type": "city",
        "blurb": "In Oberösterreich, Austria",
        "lat": 47.9828,
        "lng": 13.8242,
        "pop": 9861.0,
        "country_id": "AUT",
        "id": "1040055619",
        "ml_target": "Eastern Europe"
    },
    {
        "name": "Judenburg",
        "type": "city",
        "blurb": "In Steiermark, Austria",
        "lat": 47.1725,
        "lng": 14.6603,
        "pop": 9960.0,
        "country_id": "AUT",
        "id": "1040723538",
        "ml_target": "Eastern Europe"
    },
    {
        "name": "Sankt Andra",
        "type": "city",
        "blurb": "In Kärnten, Austria",
        "lat": 46.7667,
        "lng": 14.8167,
        "pop": 9957.0,
        "country_id": "AUT",
        "id": "1040740376",
        "ml_target": "Eastern Europe"
    },
    {
        "name": "Purkersdorf",
        "type": "city",
        "blurb": "In Niederösterreich, Austria",
        "lat": 48.2092,
        "lng": 16.1792,
        "pop": 9701.0,
        "country_id": "AUT",
        "id": "1040636796",
        "ml_target": "Eastern Europe"
    },
    {
        "name": "Zell am See",
        "type": "city",
        "blurb": "In Salzburg, Austria",
        "lat": 47.3233,
        "lng": 12.7981,
        "pop": 9762.0,
        "country_id": "AUT",
        "id": "1040352901",
        "ml_target": "Eastern Europe"
    },
    {
        "name": "Altmunster",
        "type": "city",
        "blurb": "In Oberösterreich, Austria",
        "lat": 47.9,
        "lng": 13.7667,
        "pop": 9793.0,
        "country_id": "AUT",
        "id": "1040325018",
        "ml_target": "Eastern Europe"
    },
    {
        "name": "Guntramsdorf",
        "type": "city",
        "blurb": "In Niederösterreich, Austria",
        "lat": 48.0483,
        "lng": 16.315,
        "pop": 9179.0,
        "country_id": "AUT",
        "id": "1040104912",
        "ml_target": "Eastern Europe"
    },
    {
        "name": "Voitsberg",
        "type": "city",
        "blurb": "In Steiermark, Austria",
        "lat": 47.0483,
        "lng": 15.1503,
        "pop": 9403.0,
        "country_id": "AUT",
        "id": "1040639919",
        "ml_target": "Eastern Europe"
    },
    {
        "name": "Attnang-Puchheim",
        "type": "city",
        "blurb": "In Oberösterreich, Austria",
        "lat": 48.0167,
        "lng": 13.7167,
        "pop": 8944.0,
        "country_id": "AUT",
        "id": "1040023749",
        "ml_target": "Eastern Europe"
    },
    {
        "name": "Sierning",
        "type": "city",
        "blurb": "In Oberösterreich, Austria",
        "lat": 48.0447,
        "lng": 14.31,
        "pop": 9371.0,
        "country_id": "AUT",
        "id": "1040285076",
        "ml_target": "Eastern Europe"
    },
    {
        "name": "Sankt Johann in Tirol",
        "type": "city",
        "blurb": "In Tirol, Austria",
        "lat": 47.5225,
        "lng": 12.4256,
        "pop": 9428.0,
        "country_id": "AUT",
        "id": "1040232004",
        "ml_target": "Eastern Europe"
    },
    {
        "name": "Sankt Valentin",
        "type": "city",
        "blurb": "In Niederösterreich, Austria",
        "lat": 48.1747,
        "lng": 14.5333,
        "pop": 9340.0,
        "country_id": "AUT",
        "id": "1040852174",
        "ml_target": "Eastern Europe"
    },
    {
        "name": "Berndorf",
        "type": "city",
        "blurb": "In Niederösterreich, Austria",
        "lat": 47.9428,
        "lng": 16.1036,
        "pop": 9064.0,
        "country_id": "AUT",
        "id": "1040660595",
        "ml_target": "Eastern Europe"
    },
    {
        "name": "Velden am Worthersee",
        "type": "city",
        "blurb": "In Kärnten, Austria",
        "lat": 46.6125,
        "lng": 14.0419,
        "pop": 8952.0,
        "country_id": "AUT",
        "id": "1040535411",
        "ml_target": "Eastern Europe"
    },
    {
        "name": "Engerwitzdorf",
        "type": "city",
        "blurb": "In Oberösterreich, Austria",
        "lat": 48.3397,
        "lng": 14.4256,
        "pop": 8790.0,
        "country_id": "AUT",
        "id": "1040013380",
        "ml_target": "Eastern Europe"
    },
    {
        "name": "Deutsch-Wagram",
        "type": "city",
        "blurb": "In Niederösterreich, Austria",
        "lat": 48.2994,
        "lng": 16.5644,
        "pop": 8651.0,
        "country_id": "AUT",
        "id": "1040363748",
        "ml_target": "Eastern Europe"
    },
    {
        "name": "Murzzuschlag",
        "type": "city",
        "blurb": "In Steiermark, Austria",
        "lat": 47.6075,
        "lng": 15.6731,
        "pop": 8654.0,
        "country_id": "AUT",
        "id": "1040974582",
        "ml_target": "Eastern Europe"
    },
    {
        "name": "Stainz",
        "type": "city",
        "blurb": "In Steiermark, Austria",
        "lat": 46.8942,
        "lng": 15.2639,
        "pop": 8686.0,
        "country_id": "AUT",
        "id": "1040766288",
        "ml_target": "Eastern Europe"
    },
    {
        "name": "Furstenfeld",
        "type": "city",
        "blurb": "In Steiermark, Austria",
        "lat": 47.05,
        "lng": 16.0833,
        "pop": 8549.0,
        "country_id": "AUT",
        "id": "1040284464",
        "ml_target": "Eastern Europe"
    },
    {
        "name": "Minsk",
        "type": "city",
        "blurb": "In Minsk, Belarus",
        "lat": 53.9,
        "lng": 27.5667,
        "pop": 2009786.0,
        "country_id": "BLR",
        "id": "1112348503",
        "ml_target": "Eastern Europe"
    },
    {
        "name": "Homyel'",
        "type": "city",
        "blurb": "In Homyel’skaya Voblasts’, Belarus",
        "lat": 52.4453,
        "lng": 30.9842,
        "pop": 510300.0,
        "country_id": "BLR",
        "id": "1112580227",
        "ml_target": "Eastern Europe"
    },
    {
        "name": "Vitsyebsk",
        "type": "city",
        "blurb": "In Vitsyebskaya Voblasts’, Belarus",
        "lat": 55.1917,
        "lng": 30.2056,
        "pop": 366299.0,
        "country_id": "BLR",
        "id": "1112480679",
        "ml_target": "Eastern Europe"
    },
    {
        "name": "Mahilyow",
        "type": "city",
        "blurb": "In Mahilyowskaya Voblasts’, Belarus",
        "lat": 53.9167,
        "lng": 30.35,
        "pop": 357100.0,
        "country_id": "BLR",
        "id": "1112518993",
        "ml_target": "Eastern Europe"
    },
    {
        "name": "Hrodna",
        "type": "city",
        "blurb": "In Hrodzyenskaya Voblasts’, Belarus",
        "lat": 53.6667,
        "lng": 23.8333,
        "pop": 357493.0,
        "country_id": "BLR",
        "id": "1112187197",
        "ml_target": "Eastern Europe"
    },
    {
        "name": "Brest",
        "type": "city",
        "blurb": "In Brestskaya Voblasts’, Belarus",
        "lat": 52.1347,
        "lng": 23.6569,
        "pop": 340723.0,
        "country_id": "BLR",
        "id": "1112896927",
        "ml_target": "Eastern Europe"
    },
    {
        "name": "Babruysk",
        "type": "city",
        "blurb": "In Mahilyowskaya Voblasts’, Belarus",
        "lat": 53.15,
        "lng": 29.2333,
        "pop": 212200.0,
        "country_id": "BLR",
        "id": "1112573808",
        "ml_target": "Eastern Europe"
    },
    {
        "name": "Baranavichy",
        "type": "city",
        "blurb": "In Brestskaya Voblasts’, Belarus",
        "lat": 53.1333,
        "lng": 26.0167,
        "pop": 174183.0,
        "country_id": "BLR",
        "id": "1112421165",
        "ml_target": "Eastern Europe"
    },
    {
        "name": "Horad Barysaw",
        "type": "city",
        "blurb": "In Minskaya Voblasts’, Belarus",
        "lat": 54.2279,
        "lng": 28.505,
        "pop": 155389.0,
        "country_id": "BLR",
        "id": "1112659163",
        "ml_target": "Eastern Europe"
    },
    {
        "name": "Pinsk",
        "type": "city",
        "blurb": "In Brestskaya Voblasts’, Belarus",
        "lat": 52.1153,
        "lng": 26.1031,
        "pop": 125900.0,
        "country_id": "BLR",
        "id": "1112209279",
        "ml_target": "Eastern Europe"
    },
    {
        "name": "Orsha",
        "type": "city",
        "blurb": "In Vitsyebskaya Voblasts’, Belarus",
        "lat": 54.5092,
        "lng": 30.4258,
        "pop": 117225.0,
        "country_id": "BLR",
        "id": "1112188007",
        "ml_target": "Eastern Europe"
    },
    {
        "name": "Navapolatsk",
        "type": "city",
        "blurb": "In Vitsyebskaya Voblasts’, Belarus",
        "lat": 55.5333,
        "lng": 28.65,
        "pop": 108000.0,
        "country_id": "BLR",
        "id": "1112965860",
        "ml_target": "Eastern Europe"
    },
    {
        "name": "Salihorsk",
        "type": "city",
        "blurb": "In Minskaya Voblasts’, Belarus",
        "lat": 52.8,
        "lng": 27.5333,
        "pop": 106627.0,
        "country_id": "BLR",
        "id": "1112250470",
        "ml_target": "Eastern Europe"
    },
    {
        "name": "Mazyr",
        "type": "city",
        "blurb": "In Homyel’skaya Voblasts’, Belarus",
        "lat": 52.05,
        "lng": 29.2667,
        "pop": 105439.0,
        "country_id": "BLR",
        "id": "1112704173",
        "ml_target": "Eastern Europe"
    },
    {
        "name": "Lida",
        "type": "city",
        "blurb": "In Hrodzyenskaya Voblasts’, Belarus",
        "lat": 53.8833,
        "lng": 25.3,
        "pop": 103479.0,
        "country_id": "BLR",
        "id": "1112110662",
        "ml_target": "Eastern Europe"
    },
    {
        "name": "Horad Zhodzina",
        "type": "city",
        "blurb": "In Minskaya Voblasts’, Belarus",
        "lat": 54.1,
        "lng": 28.35,
        "pop": 65451.0,
        "country_id": "BLR",
        "id": "1112402017",
        "ml_target": "Eastern Europe"
    },
    {
        "name": "Maladzyechna",
        "type": "city",
        "blurb": "In Minskaya Voblasts’, Belarus",
        "lat": 54.3208,
        "lng": 26.8572,
        "pop": 91063.0,
        "country_id": "BLR",
        "id": "1112822882",
        "ml_target": "Eastern Europe"
    },
    {
        "name": "Polatsk",
        "type": "city",
        "blurb": "In Vitsyebskaya Voblasts’, Belarus",
        "lat": 55.4833,
        "lng": 28.8,
        "pop": 82547.0,
        "country_id": "BLR",
        "id": "1112068992",
        "ml_target": "Eastern Europe"
    },
    {
        "name": "Zhlobin",
        "type": "city",
        "blurb": "In Homyel’skaya Voblasts’, Belarus",
        "lat": 52.9,
        "lng": 30.0333,
        "pop": 76078.0,
        "country_id": "BLR",
        "id": "1112494264",
        "ml_target": "Eastern Europe"
    },
    {
        "name": "Rechytsa",
        "type": "city",
        "blurb": "In Homyel’skaya Voblasts’, Belarus",
        "lat": 52.3639,
        "lng": 30.3947,
        "pop": 66400.0,
        "country_id": "BLR",
        "id": "1112587997",
        "ml_target": "Eastern Europe"
    },
    {
        "name": "Svyetlahorsk",
        "type": "city",
        "blurb": "In Homyel’skaya Voblasts’, Belarus",
        "lat": 52.6333,
        "lng": 29.7333,
        "pop": 64989.0,
        "country_id": "BLR",
        "id": "1112741799",
        "ml_target": "Eastern Europe"
    },
    {
        "name": "Slutsk",
        "type": "city",
        "blurb": "In Minskaya Voblasts’, Belarus",
        "lat": 53.0333,
        "lng": 27.5667,
        "pop": 61396.0,
        "country_id": "BLR",
        "id": "1112178336",
        "ml_target": "Eastern Europe"
    },
    {
        "name": "Kobryn",
        "type": "city",
        "blurb": "In Brestskaya Voblasts’, Belarus",
        "lat": 52.2167,
        "lng": 24.3667,
        "pop": 52843.0,
        "country_id": "BLR",
        "id": "1112806145",
        "ml_target": "Eastern Europe"
    },
    {
        "name": "Slonim",
        "type": "city",
        "blurb": "In Hrodzyenskaya Voblasts’, Belarus",
        "lat": 53.0833,
        "lng": 25.3167,
        "pop": 49830.0,
        "country_id": "BLR",
        "id": "1112619287",
        "ml_target": "Eastern Europe"
    },
    {
        "name": "Vawkavysk",
        "type": "city",
        "blurb": "In Hrodzyenskaya Voblasts’, Belarus",
        "lat": 53.1667,
        "lng": 24.4667,
        "pop": 42746.0,
        "country_id": "BLR",
        "id": "1112164201",
        "ml_target": "Eastern Europe"
    },
    {
        "name": "Kalinkavichy",
        "type": "city",
        "blurb": "In Homyel’skaya Voblasts’, Belarus",
        "lat": 52.125,
        "lng": 29.3333,
        "pop": 37633.0,
        "country_id": "BLR",
        "id": "1112264242",
        "ml_target": "Eastern Europe"
    },
    {
        "name": "Smarhon'",
        "type": "city",
        "blurb": "In Hrodzyenskaya Voblasts’, Belarus",
        "lat": 54.4836,
        "lng": 26.4,
        "pop": 36202.0,
        "country_id": "BLR",
        "id": "1112716074",
        "ml_target": "Eastern Europe"
    },
    {
        "name": "Rahachow",
        "type": "city",
        "blurb": "In Homyel’skaya Voblasts’, Belarus",
        "lat": 53.1,
        "lng": 30.05,
        "pop": 33702.0,
        "country_id": "BLR",
        "id": "1112299593",
        "ml_target": "Eastern Europe"
    },
    {
        "name": "Horki",
        "type": "city",
        "blurb": "In Mahilyowskaya Voblasts’, Belarus",
        "lat": 54.2667,
        "lng": 30.9833,
        "pop": 30390.0,
        "country_id": "BLR",
        "id": "1112565326",
        "ml_target": "Eastern Europe"
    },
    {
        "name": "Asipovichy",
        "type": "city",
        "blurb": "In Mahilyowskaya Voblasts’, Belarus",
        "lat": 53.2933,
        "lng": 28.4756,
        "pop": 29981.0,
        "country_id": "BLR",
        "id": "1112583247",
        "ml_target": "Eastern Europe"
    },
    {
        "name": "Dzyarzhynsk",
        "type": "city",
        "blurb": "In Minskaya Voblasts’, Belarus",
        "lat": 53.6833,
        "lng": 27.1333,
        "pop": 29863.0,
        "country_id": "BLR",
        "id": "1112600874",
        "ml_target": "Eastern Europe"
    },
    {
        "name": "Byaroza",
        "type": "city",
        "blurb": "In Brestskaya Voblasts’, Belarus",
        "lat": 52.55,
        "lng": 24.9667,
        "pop": 28619.0,
        "country_id": "BLR",
        "id": "1112705431",
        "ml_target": "Eastern Europe"
    },
    {
        "name": "Navahrudak",
        "type": "city",
        "blurb": "In Hrodzyenskaya Voblasts’, Belarus",
        "lat": 53.5833,
        "lng": 25.8167,
        "pop": 28199.0,
        "country_id": "BLR",
        "id": "1112500125",
        "ml_target": "Eastern Europe"
    },
    {
        "name": "Vilyeyka",
        "type": "city",
        "blurb": "In Minskaya Voblasts’, Belarus",
        "lat": 54.498,
        "lng": 26.926,
        "pop": 27167.0,
        "country_id": "BLR",
        "id": "1112405572",
        "ml_target": "Eastern Europe"
    },
    {
        "name": "Krychaw",
        "type": "city",
        "blurb": "In Mahilyowskaya Voblasts’, Belarus",
        "lat": 53.7194,
        "lng": 31.7139,
        "pop": 24170.0,
        "country_id": "BLR",
        "id": "1112203208",
        "ml_target": "Eastern Europe"
    },
    {
        "name": "Luninyets",
        "type": "city",
        "blurb": "In Brestskaya Voblasts’, Belarus",
        "lat": 52.25,
        "lng": 26.8,
        "pop": 23734.0,
        "country_id": "BLR",
        "id": "1112500648",
        "ml_target": "Eastern Europe"
    },
    {
        "name": "Ivatsevichy",
        "type": "city",
        "blurb": "In Brestskaya Voblasts’, Belarus",
        "lat": 52.7167,
        "lng": 25.3333,
        "pop": 22958.0,
        "country_id": "BLR",
        "id": "1112493375",
        "ml_target": "Eastern Europe"
    },
    {
        "name": "Mar''ina Horka",
        "type": "city",
        "blurb": "In Minskaya Voblasts’, Belarus",
        "lat": 53.5167,
        "lng": 28.1417,
        "pop": 20592.0,
        "country_id": "BLR",
        "id": "1112958819",
        "ml_target": "Eastern Europe"
    },
    {
        "name": "Pastavy",
        "type": "city",
        "blurb": "In Vitsyebskaya Voblasts’, Belarus",
        "lat": 55.1167,
        "lng": 26.8333,
        "pop": 19153.0,
        "country_id": "BLR",
        "id": "1112856591",
        "ml_target": "Eastern Europe"
    },
    {
        "name": "Pruzhany",
        "type": "city",
        "blurb": "In Brestskaya Voblasts’, Belarus",
        "lat": 52.5567,
        "lng": 24.4644,
        "pop": 19032.0,
        "country_id": "BLR",
        "id": "1112269031",
        "ml_target": "Eastern Europe"
    },
    {
        "name": "Dobrush",
        "type": "city",
        "blurb": "In Homyel’skaya Voblasts’, Belarus",
        "lat": 52.4167,
        "lng": 31.3167,
        "pop": 18311.0,
        "country_id": "BLR",
        "id": "1112814087",
        "ml_target": "Eastern Europe"
    },
    {
        "name": "Hlybokaye",
        "type": "city",
        "blurb": "In Vitsyebskaya Voblasts’, Belarus",
        "lat": 55.1333,
        "lng": 27.6833,
        "pop": 17790.0,
        "country_id": "BLR",
        "id": "1112510591",
        "ml_target": "Eastern Europe"
    },
    {
        "name": "Zaslawye",
        "type": "city",
        "blurb": "In Minskaya Voblasts’, Belarus",
        "lat": 54.0083,
        "lng": 27.2847,
        "pop": 17701.0,
        "country_id": "BLR",
        "id": "1112333553",
        "ml_target": "Eastern Europe"
    },
    {
        "name": "Fanipal",
        "type": "city",
        "blurb": "In Minskaya Voblasts’, Belarus",
        "lat": 53.75,
        "lng": 27.3333,
        "pop": 17507.0,
        "country_id": "BLR",
        "id": "1112544829",
        "ml_target": "Eastern Europe"
    },
    {
        "name": "Stowbtsy",
        "type": "city",
        "blurb": "In Minskaya Voblasts’, Belarus",
        "lat": 53.4833,
        "lng": 26.7333,
        "pop": 17496.0,
        "country_id": "BLR",
        "id": "1112415577",
        "ml_target": "Eastern Europe"
    },
    {
        "name": "Lyepyel",
        "type": "city",
        "blurb": "In Vitsyebskaya Voblasts’, Belarus",
        "lat": 54.875,
        "lng": 28.6944,
        "pop": 17280.0,
        "country_id": "BLR",
        "id": "1112177201",
        "ml_target": "Eastern Europe"
    },
    {
        "name": "Shklow",
        "type": "city",
        "blurb": "In Mahilyowskaya Voblasts’, Belarus",
        "lat": 54.2236,
        "lng": 30.2864,
        "pop": 17064.0,
        "country_id": "BLR",
        "id": "1112362928",
        "ml_target": "Eastern Europe"
    },
    {
        "name": "Bykhaw",
        "type": "city",
        "blurb": "In Mahilyowskaya Voblasts’, Belarus",
        "lat": 53.5167,
        "lng": 30.25,
        "pop": 17031.0,
        "country_id": "BLR",
        "id": "1112154662",
        "ml_target": "Eastern Europe"
    },
    {
        "name": "Ashmyany",
        "type": "city",
        "blurb": "In Hrodzyenskaya Voblasts’, Belarus",
        "lat": 54.425,
        "lng": 25.9375,
        "pop": 16979.0,
        "country_id": "BLR",
        "id": "1112383165",
        "ml_target": "Eastern Europe"
    },
    {
        "name": "Horad Smalyavichy",
        "type": "city",
        "blurb": "In Minskaya Voblasts’, Belarus",
        "lat": 54.1,
        "lng": 28.0667,
        "pop": 16594.0,
        "country_id": "BLR",
        "id": "1112264806",
        "ml_target": "Eastern Europe"
    },
    {
        "name": "Zhytkavichy",
        "type": "city",
        "blurb": "In Homyel’skaya Voblasts’, Belarus",
        "lat": 52.2333,
        "lng": 27.8667,
        "pop": 16600.0,
        "country_id": "BLR",
        "id": "1112156374",
        "ml_target": "Eastern Europe"
    },
    {
        "name": "Ivanava",
        "type": "city",
        "blurb": "In Brestskaya Voblasts’, Belarus",
        "lat": 52.1333,
        "lng": 25.55,
        "pop": 16498.0,
        "country_id": "BLR",
        "id": "1112507447",
        "ml_target": "Eastern Europe"
    },
    {
        "name": "Kastsyukovichy",
        "type": "city",
        "blurb": "In Mahilyowskaya Voblasts’, Belarus",
        "lat": 53.3333,
        "lng": 32.05,
        "pop": 15993.0,
        "country_id": "BLR",
        "id": "1112780059",
        "ml_target": "Eastern Europe"
    },
    {
        "name": "Shchuchyn",
        "type": "city",
        "blurb": "In Hrodzyenskaya Voblasts’, Belarus",
        "lat": 53.6167,
        "lng": 24.7333,
        "pop": 15475.0,
        "country_id": "BLR",
        "id": "1112140509",
        "ml_target": "Eastern Europe"
    },
    {
        "name": "Lahoysk",
        "type": "city",
        "blurb": "In Minskaya Voblasts’, Belarus",
        "lat": 54.2,
        "lng": 27.85,
        "pop": 15442.0,
        "country_id": "BLR",
        "id": "1112489566",
        "ml_target": "Eastern Europe"
    },
    {
        "name": "Klimavichy",
        "type": "city",
        "blurb": "In Mahilyowskaya Voblasts’, Belarus",
        "lat": 53.6167,
        "lng": 31.95,
        "pop": 15408.0,
        "country_id": "BLR",
        "id": "1112437772",
        "ml_target": "Eastern Europe"
    },
    {
        "name": "Masty",
        "type": "city",
        "blurb": "In Hrodzyenskaya Voblasts’, Belarus",
        "lat": 53.417,
        "lng": 24.55,
        "pop": 15197.0,
        "country_id": "BLR",
        "id": "1112000626",
        "ml_target": "Eastern Europe"
    },
    {
        "name": "Drahichyn",
        "type": "city",
        "blurb": "In Brestskaya Voblasts’, Belarus",
        "lat": 52.1833,
        "lng": 25.15,
        "pop": 14963.0,
        "country_id": "BLR",
        "id": "1112244200",
        "ml_target": "Eastern Europe"
    },
    {
        "name": "Astravyets",
        "type": "city",
        "blurb": "In Hrodzyenskaya Voblasts’, Belarus",
        "lat": 54.6136,
        "lng": 25.9553,
        "pop": 14641.0,
        "country_id": "BLR",
        "id": "1112665123",
        "ml_target": "Eastern Europe"
    },
    {
        "name": "Zhabinka",
        "type": "city",
        "blurb": "In Brestskaya Voblasts’, Belarus",
        "lat": 52.2006,
        "lng": 24.0233,
        "pop": 14577.0,
        "country_id": "BLR",
        "id": "1112259690",
        "ml_target": "Eastern Europe"
    },
    {
        "name": "Nyasvizh",
        "type": "city",
        "blurb": "In Minskaya Voblasts’, Belarus",
        "lat": 53.2167,
        "lng": 26.6667,
        "pop": 14300.0,
        "country_id": "BLR",
        "id": "1112288294",
        "ml_target": "Eastern Europe"
    },
    {
        "name": "Hantsavichy",
        "type": "city",
        "blurb": "In Brestskaya Voblasts’, Belarus",
        "lat": 52.75,
        "lng": 26.4333,
        "pop": 14043.0,
        "country_id": "BLR",
        "id": "1112778811",
        "ml_target": "Eastern Europe"
    },
    {
        "name": "Khoyniki",
        "type": "city",
        "blurb": "In Homyel’skaya Voblasts’, Belarus",
        "lat": 51.8892,
        "lng": 29.9644,
        "pop": 13439.0,
        "country_id": "BLR",
        "id": "1112972491",
        "ml_target": "Eastern Europe"
    },
    {
        "name": "Stolin",
        "type": "city",
        "blurb": "In Brestskaya Voblasts’, Belarus",
        "lat": 51.8833,
        "lng": 26.85,
        "pop": 13290.0,
        "country_id": "BLR",
        "id": "1112925605",
        "ml_target": "Eastern Europe"
    },
    {
        "name": "Malaryta",
        "type": "city",
        "blurb": "In Brestskaya Voblasts’, Belarus",
        "lat": 51.7833,
        "lng": 24.0833,
        "pop": 12883.0,
        "country_id": "BLR",
        "id": "1112089191",
        "ml_target": "Eastern Europe"
    },
    {
        "name": "Mikashevichy",
        "type": "city",
        "blurb": "In Brestskaya Voblasts’, Belarus",
        "lat": 52.2203,
        "lng": 27.4736,
        "pop": 12771.0,
        "country_id": "BLR",
        "id": "1112846282",
        "ml_target": "Eastern Europe"
    },
    {
        "name": "Novalukoml",
        "type": "city",
        "blurb": "In Vitsyebskaya Voblasts’, Belarus",
        "lat": 54.6569,
        "lng": 29.15,
        "pop": 12439.0,
        "country_id": "BLR",
        "id": "1112086719",
        "ml_target": "Eastern Europe"
    },
    {
        "name": "Haradok",
        "type": "city",
        "blurb": "In Vitsyebskaya Voblasts’, Belarus",
        "lat": 55.4667,
        "lng": 30.0,
        "pop": 11814.0,
        "country_id": "BLR",
        "id": "1112131300",
        "ml_target": "Eastern Europe"
    },
    {
        "name": "Lyuban",
        "type": "city",
        "blurb": "In Minskaya Voblasts’, Belarus",
        "lat": 52.7819,
        "lng": 28.0525,
        "pop": 11654.0,
        "country_id": "BLR",
        "id": "1112654360",
        "ml_target": "Eastern Europe"
    },
    {
        "name": "Klyetsk",
        "type": "city",
        "blurb": "In Minskaya Voblasts’, Belarus",
        "lat": 53.0636,
        "lng": 26.6372,
        "pop": 11462.0,
        "country_id": "BLR",
        "id": "1112054647",
        "ml_target": "Eastern Europe"
    },
    {
        "name": "Byerazino",
        "type": "city",
        "blurb": "In Minskaya Voblasts’, Belarus",
        "lat": 53.8333,
        "lng": 28.9833,
        "pop": 11462.0,
        "country_id": "BLR",
        "id": "1112685859",
        "ml_target": "Eastern Europe"
    },
    {
        "name": "Staryya Darohi",
        "type": "city",
        "blurb": "In Minskaya Voblasts’, Belarus",
        "lat": 53.0394,
        "lng": 28.265,
        "pop": 11198.0,
        "country_id": "BLR",
        "id": "1112727949",
        "ml_target": "Eastern Europe"
    },
    {
        "name": "Byelaazyorsk",
        "type": "city",
        "blurb": "In Brestskaya Voblasts’, Belarus",
        "lat": 52.45,
        "lng": 25.1667,
        "pop": 11115.0,
        "country_id": "BLR",
        "id": "1112431328",
        "ml_target": "Eastern Europe"
    },
    {
        "name": "Lyakhavichy",
        "type": "city",
        "blurb": "In Brestskaya Voblasts’, Belarus",
        "lat": 53.0333,
        "lng": 26.2667,
        "pop": 10997.0,
        "country_id": "BLR",
        "id": "1112145874",
        "ml_target": "Eastern Europe"
    },
    {
        "name": "Uzda",
        "type": "city",
        "blurb": "In Minskaya Voblasts’, Belarus",
        "lat": 53.4661,
        "lng": 27.2244,
        "pop": 10781.0,
        "country_id": "BLR",
        "id": "1112634742",
        "ml_target": "Eastern Europe"
    },
    {
        "name": "Chavusy",
        "type": "city",
        "blurb": "In Mahilyowskaya Voblasts’, Belarus",
        "lat": 53.8075,
        "lng": 30.9714,
        "pop": 10692.0,
        "country_id": "BLR",
        "id": "1112357951",
        "ml_target": "Eastern Europe"
    },
    {
        "name": "Baran",
        "type": "city",
        "blurb": "In Vitsyebskaya Voblasts’, Belarus",
        "lat": 54.4833,
        "lng": 30.3333,
        "pop": 10573.0,
        "country_id": "BLR",
        "id": "1112544646",
        "ml_target": "Eastern Europe"
    },
    {
        "name": "Kapyl",
        "type": "city",
        "blurb": "In Minskaya Voblasts’, Belarus",
        "lat": 53.15,
        "lng": 27.0917,
        "pop": 10367.0,
        "country_id": "BLR",
        "id": "1112976876",
        "ml_target": "Eastern Europe"
    },
    {
        "name": "Mstsislaw",
        "type": "city",
        "blurb": "In Mahilyowskaya Voblasts’, Belarus",
        "lat": 54.0167,
        "lng": 31.7167,
        "pop": 10201.0,
        "country_id": "BLR",
        "id": "1112491469",
        "ml_target": "Eastern Europe"
    },
    {
        "name": "Skidal'",
        "type": "city",
        "blurb": "In Hrodzyenskaya Voblasts’, Belarus",
        "lat": 53.5861,
        "lng": 24.2519,
        "pop": 10168.0,
        "country_id": "BLR",
        "id": "1112017248",
        "ml_target": "Eastern Europe"
    },
    {
        "name": "Byarozawka",
        "type": "city",
        "blurb": "In Hrodzyenskaya Voblasts’, Belarus",
        "lat": 53.7167,
        "lng": 25.5,
        "pop": 10081.0,
        "country_id": "BLR",
        "id": "1112003239",
        "ml_target": "Eastern Europe"
    },
    {
        "name": "Pyetrykaw",
        "type": "city",
        "blurb": "In Homyel’skaya Voblasts’, Belarus",
        "lat": 52.1333,
        "lng": 28.5,
        "pop": 10127.0,
        "country_id": "BLR",
        "id": "1112852097",
        "ml_target": "Eastern Europe"
    },
    {
        "name": "Valozhyn",
        "type": "city",
        "blurb": "In Minskaya Voblasts’, Belarus",
        "lat": 54.0833,
        "lng": 26.5167,
        "pop": 10012.0,
        "country_id": "BLR",
        "id": "1112252303",
        "ml_target": "Eastern Europe"
    },
    {
        "name": "Byalynichy",
        "type": "city",
        "blurb": "In Mahilyowskaya Voblasts’, Belarus",
        "lat": 53.9956,
        "lng": 29.7096,
        "pop": 9913.0,
        "country_id": "BLR",
        "id": "1112253671",
        "ml_target": "Eastern Europe"
    },
    {
        "name": "Talachyn",
        "type": "city",
        "blurb": "In Vitsyebskaya Voblasts’, Belarus",
        "lat": 54.4167,
        "lng": 29.7,
        "pop": 9899.0,
        "country_id": "BLR",
        "id": "1112016670",
        "ml_target": "Eastern Europe"
    },
    {
        "name": "Braslaw",
        "type": "city",
        "blurb": "In Vitsyebskaya Voblasts’, Belarus",
        "lat": 55.6391,
        "lng": 27.0318,
        "pop": 9427.0,
        "country_id": "BLR",
        "id": "1112414592",
        "ml_target": "Eastern Europe"
    },
    {
        "name": "Yel'sk",
        "type": "city",
        "blurb": "In Homyel’skaya Voblasts’, Belarus",
        "lat": 51.8167,
        "lng": 29.15,
        "pop": 9175.0,
        "country_id": "BLR",
        "id": "1112554124",
        "ml_target": "Eastern Europe"
    },
    {
        "name": "Buda-Kashalyova",
        "type": "city",
        "blurb": "In Homyel’skaya Voblasts’, Belarus",
        "lat": 52.7167,
        "lng": 30.5667,
        "pop": 8850.0,
        "country_id": "BLR",
        "id": "1112915706",
        "ml_target": "Eastern Europe"
    },
    {
        "name": "Chachersk",
        "type": "city",
        "blurb": "In Homyel’skaya Voblasts’, Belarus",
        "lat": 52.9161,
        "lng": 30.9161,
        "pop": 8730.0,
        "country_id": "BLR",
        "id": "1112940969",
        "ml_target": "Eastern Europe"
    },
    {
        "name": "Krupki",
        "type": "city",
        "blurb": "In Minskaya Voblasts’, Belarus",
        "lat": 54.3167,
        "lng": 29.1333,
        "pop": 8540.0,
        "country_id": "BLR",
        "id": "1112668114",
        "ml_target": "Eastern Europe"
    },
    {
        "name": "Vyetka",
        "type": "city",
        "blurb": "In Homyel’skaya Voblasts’, Belarus",
        "lat": 52.5667,
        "lng": 31.1833,
        "pop": 8507.0,
        "country_id": "BLR",
        "id": "1112844638",
        "ml_target": "Eastern Europe"
    },
    {
        "name": "Chervyen",
        "type": "city",
        "blurb": "In Minskaya Voblasts’, Belarus",
        "lat": 53.7078,
        "lng": 28.4322,
        "pop": 9718.0,
        "country_id": "BLR",
        "id": "1112715216",
        "ml_target": "Eastern Europe"
    },
    {
        "name": "Brussels",
        "type": "city",
        "blurb": "In Brussels-Capital Region, Belgium",
        "lat": 50.8467,
        "lng": 4.3525,
        "pop": 1743000.0,
        "country_id": "BEL",
        "id": "1056469830",
        "ml_target": "Misc.: Belgian"
    },
    {
        "name": "Antwerp",
        "type": "city",
        "blurb": "In Flanders, Belgium",
        "lat": 51.2178,
        "lng": 4.4003,
        "pop": 529247.0,
        "country_id": "BEL",
        "id": "1056168623",
        "ml_target": "Misc.: Belgian"
    },
    {
        "name": "Gent",
        "type": "city",
        "blurb": "In Flanders, Belgium",
        "lat": 51.0536,
        "lng": 3.7253,
        "pop": 265086.0,
        "country_id": "BEL",
        "id": "1056062897",
        "ml_target": "Misc.: Belgian"
    },
    {
        "name": "Charleroi",
        "type": "city",
        "blurb": "In Wallonia, Belgium",
        "lat": 50.4,
        "lng": 4.4333,
        "pop": 201816.0,
        "country_id": "BEL",
        "id": "1056263311",
        "ml_target": "Misc.: Belgian"
    },
    {
        "name": "Liege",
        "type": "city",
        "blurb": "In Wallonia, Belgium",
        "lat": 50.6397,
        "lng": 5.5706,
        "pop": 196623.0,
        "country_id": "BEL",
        "id": "1056513284",
        "ml_target": "Misc.: Belgian"
    },
    {
        "name": "Anderlecht",
        "type": "city",
        "blurb": "In Brussels-Capital Region, Belgium",
        "lat": 50.8333,
        "lng": 4.3333,
        "pop": 120887.0,
        "country_id": "BEL",
        "id": "1056297471",
        "ml_target": "Misc.: Belgian"
    },
    {
        "name": "Bruges",
        "type": "city",
        "blurb": "In Flanders, Belgium",
        "lat": 51.2089,
        "lng": 3.2242,
        "pop": 118509.0,
        "country_id": "BEL",
        "id": "1056953902",
        "ml_target": "Misc.: Belgian"
    },
    {
        "name": "Namur",
        "type": "city",
        "blurb": "In Wallonia, Belgium",
        "lat": 50.4667,
        "lng": 4.8667,
        "pop": 110939.0,
        "country_id": "BEL",
        "id": "1056954156",
        "ml_target": "Misc.: Belgian"
    },
    {
        "name": "Moortebeek",
        "type": "city",
        "blurb": "In Flanders, Belgium",
        "lat": 50.8547,
        "lng": 4.3386,
        "pop": 97979.0,
        "country_id": "BEL",
        "id": "1056103437",
        "ml_target": "Misc.: Belgian"
    },
    {
        "name": "Leuven",
        "type": "city",
        "blurb": "In Flanders, Belgium",
        "lat": 50.8833,
        "lng": 4.7,
        "pop": 101032.0,
        "country_id": "BEL",
        "id": "1056866572",
        "ml_target": "Misc.: Belgian"
    },
    {
        "name": "Mechelen",
        "type": "city",
        "blurb": "In Flanders, Belgium",
        "lat": 51.0278,
        "lng": 4.4806,
        "pop": 86921.0,
        "country_id": "BEL",
        "id": "1056687706",
        "ml_target": "Misc.: Belgian"
    },
    {
        "name": "Deurne",
        "type": "city",
        "blurb": "In Flanders, Belgium",
        "lat": 51.2247,
        "lng": 4.4625,
        "pop": 80781.0,
        "country_id": "BEL",
        "id": "1056636125",
        "ml_target": "Misc.: Belgian"
    },
    {
        "name": "Laeken",
        "type": "city",
        "blurb": "In Brussels-Capital Region, Belgium",
        "lat": 50.8778,
        "lng": 4.3558,
        "pop": 60295.0,
        "country_id": "BEL",
        "id": "1056324535",
        "ml_target": "Misc.: Belgian"
    },
    {
        "name": "Forest",
        "type": "city",
        "blurb": "In Brussels-Capital Region, Belgium",
        "lat": 50.8131,
        "lng": 4.3247,
        "pop": 56581.0,
        "country_id": "BEL",
        "id": "1056640531",
        "ml_target": "Misc.: Belgian"
    },
    {
        "name": "Etterbeek",
        "type": "city",
        "blurb": "In Brussels-Capital Region, Belgium",
        "lat": 50.8333,
        "lng": 4.3833,
        "pop": 48473.0,
        "country_id": "BEL",
        "id": "1056267205",
        "ml_target": "Misc.: Belgian"
    },
    {
        "name": "Jette",
        "type": "city",
        "blurb": "In Brussels-Capital Region, Belgium",
        "lat": 50.8667,
        "lng": 4.3333,
        "pop": 52728.0,
        "country_id": "BEL",
        "id": "1056315355",
        "ml_target": "Misc.: Belgian"
    },
    {
        "name": "Evere",
        "type": "city",
        "blurb": "In Brussels-Capital Region, Belgium",
        "lat": 50.8667,
        "lng": 4.4,
        "pop": 42656.0,
        "country_id": "BEL",
        "id": "1056731697",
        "ml_target": "Misc.: Belgian"
    },
    {
        "name": "Merksem",
        "type": "city",
        "blurb": "In Flanders, Belgium",
        "lat": 51.2428,
        "lng": 4.4414,
        "pop": 44808.0,
        "country_id": "BEL",
        "id": "1056201097",
        "ml_target": "Misc.: Belgian"
    },
    {
        "name": "Borgerhout",
        "type": "city",
        "blurb": "In Flanders, Belgium",
        "lat": 51.2117,
        "lng": 4.4407,
        "pop": 45769.0,
        "country_id": "BEL",
        "id": "1056235367",
        "ml_target": "Misc.: Belgian"
    },
    {
        "name": "Vilvoorde",
        "type": "city",
        "blurb": "In Flanders, Belgium",
        "lat": 50.9281,
        "lng": 4.4245,
        "pop": 44015.0,
        "country_id": "BEL",
        "id": "1056838834",
        "ml_target": "Misc.: Belgian"
    },
    {
        "name": "Berchem",
        "type": "city",
        "blurb": "In Flanders, Belgium",
        "lat": 51.1833,
        "lng": 4.4167,
        "pop": 43180.0,
        "country_id": "BEL",
        "id": "1056254285",
        "ml_target": "Misc.: Belgian"
    },
    {
        "name": "Hoboken",
        "type": "city",
        "blurb": "In Flanders, Belgium",
        "lat": 51.1667,
        "lng": 4.3667,
        "pop": 41220.0,
        "country_id": "BEL",
        "id": "1056996414",
        "ml_target": "Misc.: Belgian"
    },
    {
        "name": "Wilrijk",
        "type": "city",
        "blurb": "In Flanders, Belgium",
        "lat": 51.1667,
        "lng": 4.3833,
        "pop": 38319.0,
        "country_id": "BEL",
        "id": "1056856588",
        "ml_target": "Misc.: Belgian"
    },
    {
        "name": "Koekelberg",
        "type": "city",
        "blurb": "In Brussels-Capital Region, Belgium",
        "lat": 50.8667,
        "lng": 4.3333,
        "pop": 21959.0,
        "country_id": "BEL",
        "id": "1056006015",
        "ml_target": "Misc.: Belgian"
    },
    {
        "name": "Sint-Joost-ten-Node",
        "type": "city",
        "blurb": "In Brussels-Capital Region, Belgium",
        "lat": 50.85,
        "lng": 4.3833,
        "pop": 27497.0,
        "country_id": "BEL",
        "id": "1056751248",
        "ml_target": "Misc.: Belgian"
    },
    {
        "name": "Ganshoren",
        "type": "city",
        "blurb": "In Brussels-Capital Region, Belgium",
        "lat": 50.8667,
        "lng": 4.3167,
        "pop": 25234.0,
        "country_id": "BEL",
        "id": "1056018953",
        "ml_target": "Misc.: Belgian"
    },
    {
        "name": "Mortsel",
        "type": "city",
        "blurb": "In Flanders, Belgium",
        "lat": 51.1667,
        "lng": 4.4667,
        "pop": 26157.0,
        "country_id": "BEL",
        "id": "1056283690",
        "ml_target": "Misc.: Belgian"
    },
    {
        "name": "Saint-Nicolas",
        "type": "city",
        "blurb": "In Wallonia, Belgium",
        "lat": 50.6333,
        "lng": 5.5333,
        "pop": 24251.0,
        "country_id": "BEL",
        "id": "1056730951",
        "ml_target": "Misc.: Belgian"
    },
    {
        "name": "Sint-Amandsberg",
        "type": "city",
        "blurb": "In Flanders, Belgium",
        "lat": 51.0539,
        "lng": 3.7492,
        "pop": 23143.0,
        "country_id": "BEL",
        "id": "1056712936",
        "ml_target": "Misc.: Belgian"
    },
    {
        "name": "Ekeren",
        "type": "city",
        "blurb": "In Flanders, Belgium",
        "lat": 51.2833,
        "lng": 4.4167,
        "pop": 22874.0,
        "country_id": "BEL",
        "id": "1056130684",
        "ml_target": "Misc.: Belgian"
    },
    {
        "name": "Edegem",
        "type": "city",
        "blurb": "In Flanders, Belgium",
        "lat": 51.15,
        "lng": 4.45,
        "pop": 22261.0,
        "country_id": "BEL",
        "id": "1056844359",
        "ml_target": "Misc.: Belgian"
    },
    {
        "name": "Assebroek",
        "type": "city",
        "blurb": "In Flanders, Belgium",
        "lat": 51.2,
        "lng": 3.25,
        "pop": 19737.0,
        "country_id": "BEL",
        "id": "1056722855",
        "ml_target": "Misc.: Belgian"
    },
    {
        "name": "Boom",
        "type": "city",
        "blurb": "In Flanders, Belgium",
        "lat": 51.0833,
        "lng": 4.3667,
        "pop": 18555.0,
        "country_id": "BEL",
        "id": "1056928401",
        "ml_target": "Misc.: Belgian"
    },
    {
        "name": "Neder-Over-Heembeek",
        "type": "city",
        "blurb": "In Brussels-Capital Region, Belgium",
        "lat": 50.9,
        "lng": 4.3833,
        "pop": 17595.0,
        "country_id": "BEL",
        "id": "1056378627",
        "ml_target": "Misc.: Belgian"
    },
    {
        "name": "Wondelgem",
        "type": "city",
        "blurb": "In Flanders, Belgium",
        "lat": 51.0889,
        "lng": 3.7131,
        "pop": 16932.0,
        "country_id": "BEL",
        "id": "1056981406",
        "ml_target": "Misc.: Belgian"
    },
    {
        "name": "Mariakerke",
        "type": "city",
        "blurb": "In Flanders, Belgium",
        "lat": 51.0728,
        "lng": 3.6761,
        "pop": 14140.0,
        "country_id": "BEL",
        "id": "1056784133",
        "ml_target": "Misc.: Belgian"
    },
    {
        "name": "Wezembeek-Oppem",
        "type": "city",
        "blurb": "In Flanders, Belgium",
        "lat": 50.8333,
        "lng": 4.5,
        "pop": 14021.0,
        "country_id": "BEL",
        "id": "1056614570",
        "ml_target": "Misc.: Belgian"
    },
    {
        "name": "Kraainem",
        "type": "city",
        "blurb": "In Flanders, Belgium",
        "lat": 50.8619,
        "lng": 4.4572,
        "pop": 13690.0,
        "country_id": "BEL",
        "id": "1056363403",
        "ml_target": "Misc.: Belgian"
    },
    {
        "name": "Hemiksem",
        "type": "city",
        "blurb": "In Flanders, Belgium",
        "lat": 51.15,
        "lng": 4.35,
        "pop": 11634.0,
        "country_id": "BEL",
        "id": "1056061898",
        "ml_target": "Misc.: Belgian"
    },
    {
        "name": "Borsbeek",
        "type": "city",
        "blurb": "In Flanders, Belgium",
        "lat": 51.2,
        "lng": 4.4833,
        "pop": 10949.0,
        "country_id": "BEL",
        "id": "1056005961",
        "ml_target": "Misc.: Belgian"
    },
    {
        "name": "Mons",
        "type": "city",
        "blurb": "In Wallonia, Belgium",
        "lat": 50.45,
        "lng": 3.95,
        "pop": 95299.0,
        "country_id": "BEL",
        "id": "1056836704",
        "ml_target": "Misc.: Belgian"
    },
    {
        "name": "Aalst",
        "type": "city",
        "blurb": "In Flanders, Belgium",
        "lat": 50.9383,
        "lng": 4.0392,
        "pop": 88854.0,
        "country_id": "BEL",
        "id": "1056695813",
        "ml_target": "Misc.: Belgian"
    },
    {
        "name": "La Louviere",
        "type": "city",
        "blurb": "In Wallonia, Belgium",
        "lat": 50.4667,
        "lng": 4.1833,
        "pop": 80986.0,
        "country_id": "BEL",
        "id": "1056383929",
        "ml_target": "Misc.: Belgian"
    },
    {
        "name": "Sint-Niklaas",
        "type": "city",
        "blurb": "In Flanders, Belgium",
        "lat": 51.1667,
        "lng": 4.1333,
        "pop": 80167.0,
        "country_id": "BEL",
        "id": "1056028982",
        "ml_target": "Misc.: Belgian"
    },
    {
        "name": "Kortrijk",
        "type": "city",
        "blurb": "In Flanders, Belgium",
        "lat": 50.8333,
        "lng": 3.2667,
        "pop": 77741.0,
        "country_id": "BEL",
        "id": "1056702614",
        "ml_target": "Misc.: Belgian"
    },
    {
        "name": "Hasselt",
        "type": "city",
        "blurb": "In Flanders, Belgium",
        "lat": 50.9305,
        "lng": 5.3385,
        "pop": 77651.0,
        "country_id": "BEL",
        "id": "1056617022",
        "ml_target": "Misc.: Belgian"
    },
    {
        "name": "Ostend",
        "type": "city",
        "blurb": "In Flanders, Belgium",
        "lat": 51.2258,
        "lng": 2.9194,
        "pop": 71557.0,
        "country_id": "BEL",
        "id": "1056454956",
        "ml_target": "Misc.: Belgian"
    },
    {
        "name": "Tournai",
        "type": "city",
        "blurb": "In Wallonia, Belgium",
        "lat": 50.6056,
        "lng": 3.3881,
        "pop": 69554.0,
        "country_id": "BEL",
        "id": "1056138540",
        "ml_target": "Misc.: Belgian"
    },
    {
        "name": "Genk",
        "type": "city",
        "blurb": "In Flanders, Belgium",
        "lat": 50.9662,
        "lng": 5.5021,
        "pop": 66110.0,
        "country_id": "BEL",
        "id": "1056555160",
        "ml_target": "Misc.: Belgian"
    },
    {
        "name": "Seraing",
        "type": "city",
        "blurb": "In Wallonia, Belgium",
        "lat": 50.5833,
        "lng": 5.5,
        "pop": 64270.0,
        "country_id": "BEL",
        "id": "1056627579",
        "ml_target": "Misc.: Belgian"
    },
    {
        "name": "Roeselare",
        "type": "city",
        "blurb": "In Flanders, Belgium",
        "lat": 50.9447,
        "lng": 3.1233,
        "pop": 64495.0,
        "country_id": "BEL",
        "id": "1056334112",
        "ml_target": "Misc.: Belgian"
    },
    {
        "name": "Mouscron",
        "type": "city",
        "blurb": "In Wallonia, Belgium",
        "lat": 50.7333,
        "lng": 3.2167,
        "pop": 58234.0,
        "country_id": "BEL",
        "id": "1056095679",
        "ml_target": "Misc.: Belgian"
    },
    {
        "name": "Verviers",
        "type": "city",
        "blurb": "In Wallonia, Belgium",
        "lat": 50.5833,
        "lng": 5.85,
        "pop": 55198.0,
        "country_id": "BEL",
        "id": "1056464610",
        "ml_target": "Misc.: Belgian"
    },
    {
        "name": "Beveren",
        "type": "city",
        "blurb": "In Flanders, Belgium",
        "lat": 51.2,
        "lng": 4.25,
        "pop": 48192.0,
        "country_id": "BEL",
        "id": "1056581431",
        "ml_target": "Misc.: Belgian"
    },
    {
        "name": "Beringen",
        "type": "city",
        "blurb": "In Flanders, Belgium",
        "lat": 51.0333,
        "lng": 5.2167,
        "pop": 46065.0,
        "country_id": "BEL",
        "id": "1056300146",
        "ml_target": "Misc.: Belgian"
    },
    {
        "name": "Dendermonde",
        "type": "city",
        "blurb": "In Flanders, Belgium",
        "lat": 51.0333,
        "lng": 4.1,
        "pop": 45673.0,
        "country_id": "BEL",
        "id": "1056277590",
        "ml_target": "Misc.: Belgian"
    },
    {
        "name": "Turnhout",
        "type": "city",
        "blurb": "In Flanders, Belgium",
        "lat": 51.3167,
        "lng": 4.95,
        "pop": 44136.0,
        "country_id": "BEL",
        "id": "1056378407",
        "ml_target": "Misc.: Belgian"
    },
    {
        "name": "Deinze",
        "type": "city",
        "blurb": "In Flanders, Belgium",
        "lat": 50.9833,
        "lng": 3.5333,
        "pop": 44315.0,
        "country_id": "BEL",
        "id": "1056715271",
        "ml_target": "Misc.: Belgian"
    },
    {
        "name": "Dilbeek",
        "type": "city",
        "blurb": "In Flanders, Belgium",
        "lat": 50.8333,
        "lng": 4.25,
        "pop": 42434.0,
        "country_id": "BEL",
        "id": "1056357068",
        "ml_target": "Misc.: Belgian"
    },
    {
        "name": "Heist-op-den-Berg",
        "type": "city",
        "blurb": "In Flanders, Belgium",
        "lat": 51.0833,
        "lng": 4.7167,
        "pop": 42950.0,
        "country_id": "BEL",
        "id": "1056533253",
        "ml_target": "Misc.: Belgian"
    },
    {
        "name": "Lokeren",
        "type": "city",
        "blurb": "In Flanders, Belgium",
        "lat": 51.1,
        "lng": 3.9833,
        "pop": 42703.0,
        "country_id": "BEL",
        "id": "1056040417",
        "ml_target": "Misc.: Belgian"
    },
    {
        "name": "Herstal",
        "type": "city",
        "blurb": "In Wallonia, Belgium",
        "lat": 50.6667,
        "lng": 5.6333,
        "pop": 39958.0,
        "country_id": "BEL",
        "id": "1056571016",
        "ml_target": "Misc.: Belgian"
    },
    {
        "name": "Geel",
        "type": "city",
        "blurb": "In Flanders, Belgium",
        "lat": 51.1667,
        "lng": 5.0,
        "pop": 41146.0,
        "country_id": "BEL",
        "id": "1056650070",
        "ml_target": "Misc.: Belgian"
    },
    {
        "name": "Sint-Truiden",
        "type": "city",
        "blurb": "In Flanders, Belgium",
        "lat": 50.8167,
        "lng": 5.1833,
        "pop": 40672.0,
        "country_id": "BEL",
        "id": "1056944500",
        "ml_target": "Misc.: Belgian"
    },
    {
        "name": "Braine-l'Alleud",
        "type": "city",
        "blurb": "In Wallonia, Belgium",
        "lat": 50.6806,
        "lng": 4.3717,
        "pop": 39837.0,
        "country_id": "BEL",
        "id": "1056287952",
        "ml_target": "Misc.: Belgian"
    },
    {
        "name": "Ninove",
        "type": "city",
        "blurb": "In Flanders, Belgium",
        "lat": 50.8333,
        "lng": 4.0167,
        "pop": 39626.0,
        "country_id": "BEL",
        "id": "1056641524",
        "ml_target": "Misc.: Belgian"
    },
    {
        "name": "Halle",
        "type": "city",
        "blurb": "In Flanders, Belgium",
        "lat": 50.7361,
        "lng": 4.2372,
        "pop": 39096.0,
        "country_id": "BEL",
        "id": "1056061836",
        "ml_target": "Misc.: Belgian"
    },
    {
        "name": "Brasschaat",
        "type": "city",
        "blurb": "In Flanders, Belgium",
        "lat": 51.2931,
        "lng": 4.4894,
        "pop": 38223.0,
        "country_id": "BEL",
        "id": "1056299309",
        "ml_target": "Misc.: Belgian"
    },
    {
        "name": "Waregem",
        "type": "city",
        "blurb": "In Flanders, Belgium",
        "lat": 50.8811,
        "lng": 3.4001,
        "pop": 38347.0,
        "country_id": "BEL",
        "id": "1056938686",
        "ml_target": "Misc.: Belgian"
    },
    {
        "name": "Mechelen-aan-de-Maas",
        "type": "city",
        "blurb": "In Flanders, Belgium",
        "lat": 50.9967,
        "lng": 5.7025,
        "pop": 38193.0,
        "country_id": "BEL",
        "id": "1056407060",
        "ml_target": "Misc.: Belgian"
    },
    {
        "name": "Grimbergen",
        "type": "city",
        "blurb": "In Flanders, Belgium",
        "lat": 50.9333,
        "lng": 4.3833,
        "pop": 37355.0,
        "country_id": "BEL",
        "id": "1056864579",
        "ml_target": "Misc.: Belgian"
    },
    {
        "name": "Chatelet",
        "type": "city",
        "blurb": "In Wallonia, Belgium",
        "lat": 50.4,
        "lng": 4.5167,
        "pop": 36101.0,
        "country_id": "BEL",
        "id": "1056557187",
        "ml_target": "Misc.: Belgian"
    },
    {
        "name": "Lierre",
        "type": "city",
        "blurb": "In Flanders, Belgium",
        "lat": 51.1333,
        "lng": 4.5667,
        "pop": 36646.0,
        "country_id": "BEL",
        "id": "1056505135",
        "ml_target": "Misc.: Belgian"
    },
    {
        "name": "Mol",
        "type": "city",
        "blurb": "In Flanders, Belgium",
        "lat": 51.1833,
        "lng": 5.1167,
        "pop": 37022.0,
        "country_id": "BEL",
        "id": "1056847907",
        "ml_target": "Misc.: Belgian"
    },
    {
        "name": "Zaventem",
        "type": "city",
        "blurb": "In Flanders, Belgium",
        "lat": 50.8833,
        "lng": 4.4667,
        "pop": 35184.0,
        "country_id": "BEL",
        "id": "1056786797",
        "ml_target": "Misc.: Belgian"
    },
    {
        "name": "Evergem",
        "type": "city",
        "blurb": "In Flanders, Belgium",
        "lat": 51.0167,
        "lng": 3.7,
        "pop": 35239.0,
        "country_id": "BEL",
        "id": "1056954111",
        "ml_target": "Misc.: Belgian"
    },
    {
        "name": "Schoten",
        "type": "city",
        "blurb": "In Flanders, Belgium",
        "lat": 51.25,
        "lng": 4.5,
        "pop": 34462.0,
        "country_id": "BEL",
        "id": "1056187001",
        "ml_target": "Misc.: Belgian"
    },
    {
        "name": "Ieper",
        "type": "city",
        "blurb": "In Flanders, Belgium",
        "lat": 50.8508,
        "lng": 2.885,
        "pop": 35039.0,
        "country_id": "BEL",
        "id": "1056744519",
        "ml_target": "Misc.: Belgian"
    },
    {
        "name": "Tienen",
        "type": "city",
        "blurb": "In Flanders, Belgium",
        "lat": 50.8,
        "lng": 4.9333,
        "pop": 34675.0,
        "country_id": "BEL",
        "id": "1056670352",
        "ml_target": "Misc.: Belgian"
    },
    {
        "name": "Wavre",
        "type": "city",
        "blurb": "In Wallonia, Belgium",
        "lat": 50.7167,
        "lng": 4.6,
        "pop": 34305.0,
        "country_id": "BEL",
        "id": "1056538762",
        "ml_target": "Misc.: Belgian"
    },
    {
        "name": "Menen",
        "type": "city",
        "blurb": "In Flanders, Belgium",
        "lat": 50.7956,
        "lng": 3.1217,
        "pop": 33982.0,
        "country_id": "BEL",
        "id": "1056841514",
        "ml_target": "Misc.: Belgian"
    },
    {
        "name": "Sint-Pieters-Leeuw",
        "type": "city",
        "blurb": "In Flanders, Belgium",
        "lat": 50.7833,
        "lng": 4.25,
        "pop": 34038.0,
        "country_id": "BEL",
        "id": "1056770935",
        "ml_target": "Misc.: Belgian"
    },
    {
        "name": "Lommel",
        "type": "city",
        "blurb": "In Flanders, Belgium",
        "lat": 51.2333,
        "lng": 5.3167,
        "pop": 34044.0,
        "country_id": "BEL",
        "id": "1056200489",
        "ml_target": "Misc.: Belgian"
    },
    {
        "name": "Binche",
        "type": "city",
        "blurb": "In Wallonia, Belgium",
        "lat": 50.4,
        "lng": 4.1667,
        "pop": 33598.0,
        "country_id": "BEL",
        "id": "1056520553",
        "ml_target": "Misc.: Belgian"
    },
    {
        "name": "Geraardsbergen",
        "type": "city",
        "blurb": "In Flanders, Belgium",
        "lat": 50.7667,
        "lng": 3.8667,
        "pop": 33403.0,
        "country_id": "BEL",
        "id": "1056572611",
        "ml_target": "Misc.: Belgian"
    },
    {
        "name": "Asse",
        "type": "city",
        "blurb": "In Flanders, Belgium",
        "lat": 50.9,
        "lng": 4.2,
        "pop": 32958.0,
        "country_id": "BEL",
        "id": "1056775940",
        "ml_target": "Misc.: Belgian"
    },
    {
        "name": "Knokke-Heist",
        "type": "city",
        "blurb": "In Flanders, Belgium",
        "lat": 51.3414,
        "lng": 3.2869,
        "pop": 33097.0,
        "country_id": "BEL",
        "id": "1056022450",
        "ml_target": "Misc.: Belgian"
    },
    {
        "name": "Bilzen",
        "type": "city",
        "blurb": "In Flanders, Belgium",
        "lat": 50.8667,
        "lng": 5.5167,
        "pop": 32318.0,
        "country_id": "BEL",
        "id": "1056431359",
        "ml_target": "Misc.: Belgian"
    },
    {
        "name": "Oudenaarde",
        "type": "city",
        "blurb": "In Flanders, Belgium",
        "lat": 50.85,
        "lng": 3.6,
        "pop": 31866.0,
        "country_id": "BEL",
        "id": "1056780523",
        "ml_target": "Misc.: Belgian"
    },
    {
        "name": "Wevelgem",
        "type": "city",
        "blurb": "In Flanders, Belgium",
        "lat": 50.8081,
        "lng": 3.1839,
        "pop": 31412.0,
        "country_id": "BEL",
        "id": "1056233593",
        "ml_target": "Misc.: Belgian"
    },
    {
        "name": "Courcelles",
        "type": "city",
        "blurb": "In Wallonia, Belgium",
        "lat": 50.4578,
        "lng": 4.3756,
        "pop": 31376.0,
        "country_id": "BEL",
        "id": "1056057326",
        "ml_target": "Misc.: Belgian"
    },
    {
        "name": "Louvain-la-Neuve",
        "type": "city",
        "blurb": "In Wallonia, Belgium",
        "lat": 50.6667,
        "lng": 4.5,
        "pop": 31551.0,
        "country_id": "BEL",
        "id": "1056082103",
        "ml_target": "Misc.: Belgian"
    },
    {
        "name": "Waterloo",
        "type": "city",
        "blurb": "In Wallonia, Belgium",
        "lat": 50.7167,
        "lng": 4.3833,
        "pop": 30174.0,
        "country_id": "BEL",
        "id": "1056353647",
        "ml_target": "Misc.: Belgian"
    },
    {
        "name": "Tongeren",
        "type": "city",
        "blurb": "In Flanders, Belgium",
        "lat": 50.7794,
        "lng": 5.4631,
        "pop": 31142.0,
        "country_id": "BEL",
        "id": "1056711491",
        "ml_target": "Misc.: Belgian"
    },
    {
        "name": "Aarschot",
        "type": "city",
        "blurb": "In Flanders, Belgium",
        "lat": 50.9842,
        "lng": 4.8333,
        "pop": 29965.0,
        "country_id": "BEL",
        "id": "1056740173",
        "ml_target": "Misc.: Belgian"
    },
    {
        "name": "Temse",
        "type": "city",
        "blurb": "In Flanders, Belgium",
        "lat": 51.1167,
        "lng": 4.2,
        "pop": 29528.0,
        "country_id": "BEL",
        "id": "1056178805",
        "ml_target": "Misc.: Belgian"
    },
    {
        "name": "Arlon",
        "type": "city",
        "blurb": "In Wallonia, Belgium",
        "lat": 49.6833,
        "lng": 5.8167,
        "pop": 29733.0,
        "country_id": "BEL",
        "id": "1056746428",
        "ml_target": "Misc.: Belgian"
    },
    {
        "name": "Izegem",
        "type": "city",
        "blurb": "In Flanders, Belgium",
        "lat": 50.9172,
        "lng": 3.215,
        "pop": 28845.0,
        "country_id": "BEL",
        "id": "1056662336",
        "ml_target": "Misc.: Belgian"
    },
    {
        "name": "Brecht",
        "type": "city",
        "blurb": "In Flanders, Belgium",
        "lat": 51.35,
        "lng": 4.6333,
        "pop": 29454.0,
        "country_id": "BEL",
        "id": "1056740797",
        "ml_target": "Misc.: Belgian"
    },
    {
        "name": "Ans",
        "type": "city",
        "blurb": "In Wallonia, Belgium",
        "lat": 50.6625,
        "lng": 5.52,
        "pop": 28238.0,
        "country_id": "BEL",
        "id": "1056084793",
        "ml_target": "Misc.: Belgian"
    },
    {
        "name": "Ath",
        "type": "city",
        "blurb": "In Wallonia, Belgium",
        "lat": 50.6167,
        "lng": 3.7667,
        "pop": 29164.0,
        "country_id": "BEL",
        "id": "1056512490",
        "ml_target": "Misc.: Belgian"
    },
    {
        "name": "Nivelles",
        "type": "city",
        "blurb": "In Wallonia, Belgium",
        "lat": 50.5833,
        "lng": 4.3167,
        "pop": 28521.0,
        "country_id": "BEL",
        "id": "1056187375",
        "ml_target": "Misc.: Belgian"
    },
    {
        "name": "Herentals",
        "type": "city",
        "blurb": "In Flanders, Belgium",
        "lat": 51.1833,
        "lng": 4.8333,
        "pop": 28272.0,
        "country_id": "BEL",
        "id": "1056125768",
        "ml_target": "Misc.: Belgian"
    },
    {
        "name": "Harelbeke",
        "type": "city",
        "blurb": "In Flanders, Belgium",
        "lat": 50.8567,
        "lng": 3.3131,
        "pop": 27886.0,
        "country_id": "BEL",
        "id": "1056312961",
        "ml_target": "Misc.: Belgian"
    },
    {
        "name": "Andenne",
        "type": "city",
        "blurb": "In Wallonia, Belgium",
        "lat": 50.4833,
        "lng": 5.1,
        "pop": 27573.0,
        "country_id": "BEL",
        "id": "1056666375",
        "ml_target": "Misc.: Belgian"
    },
    {
        "name": "Soignies",
        "type": "city",
        "blurb": "In Wallonia, Belgium",
        "lat": 50.5667,
        "lng": 4.0667,
        "pop": 27603.0,
        "country_id": "BEL",
        "id": "1056957745",
        "ml_target": "Misc.: Belgian"
    },
    {
        "name": "Kapellen",
        "type": "city",
        "blurb": "In Flanders, Belgium",
        "lat": 51.3167,
        "lng": 4.4333,
        "pop": 26981.0,
        "country_id": "BEL",
        "id": "1056965326",
        "ml_target": "Misc.: Belgian"
    },
    {
        "name": "Ronse",
        "type": "city",
        "blurb": "In Flanders, Belgium",
        "lat": 50.75,
        "lng": 3.6,
        "pop": 26702.0,
        "country_id": "BEL",
        "id": "1056897548",
        "ml_target": "Misc.: Belgian"
    },
    {
        "name": "Willebroek",
        "type": "city",
        "blurb": "In Flanders, Belgium",
        "lat": 51.0667,
        "lng": 4.3667,
        "pop": 26223.0,
        "country_id": "BEL",
        "id": "1056186071",
        "ml_target": "Misc.: Belgian"
    },
    {
        "name": "Flemalle-Haute",
        "type": "city",
        "blurb": "In Wallonia, Belgium",
        "lat": 50.6011,
        "lng": 5.4628,
        "pop": 26174.0,
        "country_id": "BEL",
        "id": "1056508801",
        "ml_target": "Misc.: Belgian"
    },
    {
        "name": "Zottegem",
        "type": "city",
        "blurb": "In Flanders, Belgium",
        "lat": 50.8667,
        "lng": 3.8,
        "pop": 26373.0,
        "country_id": "BEL",
        "id": "1056768332",
        "ml_target": "Misc.: Belgian"
    },
    {
        "name": "Tubize",
        "type": "city",
        "blurb": "In Wallonia, Belgium",
        "lat": 50.693,
        "lng": 4.2047,
        "pop": 25914.0,
        "country_id": "BEL",
        "id": "1056180721",
        "ml_target": "Misc.: Belgian"
    },
    {
        "name": "Lanaken",
        "type": "city",
        "blurb": "In Flanders, Belgium",
        "lat": 50.8925,
        "lng": 5.6497,
        "pop": 25818.0,
        "country_id": "BEL",
        "id": "1056538435",
        "ml_target": "Misc.: Belgian"
    },
    {
        "name": "Gembloux",
        "type": "city",
        "blurb": "In Wallonia, Belgium",
        "lat": 50.5667,
        "lng": 4.6833,
        "pop": 25933.0,
        "country_id": "BEL",
        "id": "1056071343",
        "ml_target": "Misc.: Belgian"
    },
    {
        "name": "Wetteren",
        "type": "city",
        "blurb": "In Flanders, Belgium",
        "lat": 51.0,
        "lng": 3.8833,
        "pop": 25477.0,
        "country_id": "BEL",
        "id": "1056973131",
        "ml_target": "Misc.: Belgian"
    },
    {
        "name": "Oupeye",
        "type": "city",
        "blurb": "In Wallonia, Belgium",
        "lat": 50.7083,
        "lng": 5.6431,
        "pop": 25297.0,
        "country_id": "BEL",
        "id": "1056414303",
        "ml_target": "Misc.: Belgian"
    },
    {
        "name": "Beersel",
        "type": "city",
        "blurb": "In Flanders, Belgium",
        "lat": 50.7631,
        "lng": 4.3086,
        "pop": 25069.0,
        "country_id": "BEL",
        "id": "1056689003",
        "ml_target": "Misc.: Belgian"
    },
    {
        "name": "Overijse",
        "type": "city",
        "blurb": "In Flanders, Belgium",
        "lat": 50.7833,
        "lng": 4.5333,
        "pop": 25169.0,
        "country_id": "BEL",
        "id": "1056558887",
        "ml_target": "Misc.: Belgian"
    },
    {
        "name": "Maaseik",
        "type": "city",
        "blurb": "In Flanders, Belgium",
        "lat": 51.1019,
        "lng": 5.7856,
        "pop": 25201.0,
        "country_id": "BEL",
        "id": "1056459643",
        "ml_target": "Misc.: Belgian"
    },
    {
        "name": "Hamme",
        "type": "city",
        "blurb": "In Flanders, Belgium",
        "lat": 51.0833,
        "lng": 4.1333,
        "pop": 24829.0,
        "country_id": "BEL",
        "id": "1056862264",
        "ml_target": "Misc.: Belgian"
    },
    {
        "name": "Westerlo",
        "type": "city",
        "blurb": "In Flanders, Belgium",
        "lat": 51.0833,
        "lng": 4.9167,
        "pop": 24884.0,
        "country_id": "BEL",
        "id": "1056672480",
        "ml_target": "Misc.: Belgian"
    },